ID,Start_Time,Start_Lat,Start_Lng,End_Lat,End_Lng,Number,Side,City,County,State,Zipcode,Temperature(F),Visibility(mi),Wind_Speed(mph),Precipitation(in),Weather_Condition,Crossing,Junction,Traffic_Signal,Sunrise_Sunset,logDist
A-3847268,2019-11-22T23:22:27Z,44.62932,-122.95128,44.62932,-122.95128,36201,L,Albany,Linn,OR,97322-9735,30,10,0,0,Fair,0,FALSE,0,Night,-2.3025850929940455
A-3849322,2019-10-01T20:52:52Z,48.96475,-122.451919,48.9644,-122.441454,704,R,Lynden,Whatcom,WA,98264-9502,47,10,3,0,Partly Cloudy,0,FALSE,0,Night,-0.5533852381847867
A-3759456,2019-12-31T15:50:00Z,41.19063,-112.04831,41.19063,-112.04831,2897,L,Roy,Weber,UT,84067-9680,30,10,6,0,Cloudy,1,FALSE,1,Day,-2.3025850929940455
A-4205673,2019-06-27T05:29:00Z,40.034394,-111.52082,40.029258,-111.507608,10481,R,Springville-Mapleton,Utah,UT,84660,60,10,3,0,Mostly Cloudy,0,FALSE,0,Night,-0.1232982163444936
A-4178837,2019-04-02T14:51:17Z,45.212982,-123.104144,45.21297,-123.10417,13085,L,Dayton,Yamhill,OR,97114,59,10,0,0,Cloudy,0,FALSE,0,Day,-2.2827824656978657
A-3884607,2019-09-16T06:03:00Z,33.563821,-117.546053,33.563821,-117.546053,33611,L,San Juan Capistrano,Orange,CA,92675-2042,69,10,0,0,Mostly Cloudy,0,FALSE,0,Night,-2.3025850929940455
A-3764586,2019-12-05T10:14:00Z,33.916605,-117.296159,33.916605,-117.296159,2077,L,Riverside,Riverside,CA,92508,51,6,0,0,Mostly Cloudy,0,FALSE,1,Day,-2.3025850929940455
A-3771628,2019-12-10T07:39:00Z,34.156423,-118.257943,34.156423,-118.257943,695,L,Glendale,Los Angeles,CA,91203-1400,48,10,0,0,Partly Cloudy,0,FALSE,0,Day,-2.3025850929940455
A-3810619,2019-10-19T13:16:00Z,38.498027,-122.654016,38.498027,-122.654016,5201,L,Santa Rosa,Sonoma,CA,95404-8671,58,3,5,0,Cloudy,0,FALSE,0,Day,-2.3025850929940455
A-3804439,2019-10-15T05:38:00Z,43.92099,-92.27863,43.90894,-92.26229,10038,R,Chatfield,Olmsted,MN,55923-2101,44,10,10,0,Fair,0,FALSE,0,Night,0.2342812957246657
A-3771987,2019-12-10T17:35:30Z,34.01804,-117.13117,34.01804,-117.13117,30835,R,Redlands,San Bernardino,CA,92373-7447,59,7,7,0,Mostly Cloudy,0,FALSE,0,Night,-2.3025850929940455
A-3771073,2019-12-10T07:17:40Z,45.37601,-122.08503,45.37601,-122.08503,56290,R,Sandy,Clackamas,OR,97055-7772,41,10,10,0,Fair,0,FALSE,0,Night,-2.3025850929940455
A-3798119,2019-10-09T19:19:00Z,36.986254,-121.964857,36.986254,-121.964857,2734,R,Soquel,Santa Cruz,CA,95073-2111,57,10,5,0,Fair,0,FALSE,0,Night,-2.3025850929940455
A-3880188,2019-09-12T14:10:00Z,35.657028,-118.325865,35.657028,-118.325865,17218,R,Weldon,Kern,CA,93283,92,10,3,0,Fair,0,FALSE,0,Day,-2.3025850929940455
A-3830618,2019-11-03T12:17:00Z,38.870436,-119.994428,38.870436,-119.994428,1998,R,South Lake Tahoe,El Dorado,CA,96150,60,10,6,0,Fair,0,FALSE,0,Day,-2.3025850929940455
A-4228824,2019-08-01T16:02:35Z,37.68884,-78.51542,37.7095,-78.5117,11114,R,Scottsville,Buckingham,VA,24590-6302,88,10,5,0,Mostly Cloudy,0,FALSE,0,Day,0.4330802751411378
A-4178015,2019-04-02T00:48:56Z,40.43136,-75.93781,40.426397,-75.937167,5267,L,Reading,Berks,PA,19605-9725,32,10,0,0,Fair,0,FALSE,0,Night,-0.809680996815897
A-3885442,2019-03-04T06:16:25Z,45.282132,-123.824193,45.2811,-123.824,23746,L,Cloverdale,Tillamook,OR,97112-9775,23,10,5,0,Fair,0,FALSE,0,Night,-1.760260802168684
A-4174308,2019-04-21T19:48:32Z,44.122713,-122.394871,44.123185,-122.387085,50263,L,Vida,Lane,OR,97488-9747,56,10,3,0,Mostly Cloudy,0,FALSE,0,Day,-0.7174398731289899
A-3845171,2019-11-14T15:52:27Z,45.05579,-123.54471,45.05068,-123.51576,25342,L,Willamina,Polk,OR,97396-9727,53,10,6,0,Cloudy,0,FALSE,0,Day,0.4427608928518614
A-3874091,2019-09-07T17:56:02Z,44.633234,-124.015677,44.633099,-124.013546,2146,L,Newport,Lincoln,OR,97365-9556,64,10,10,0,Cloudy,0,FALSE,0,Day,-1.5847452998437288
A-3813985,2019-10-22T17:51:00Z,41.24428,-111.97818,41.24428,-111.9779,100,L,Ogden,Weber,UT,84404-5510,58,10,7,0,Cloudy,1,FALSE,1,Day,-2.162823150618887
A-3841310,2019-11-11T13:46:00Z,37.698356,-122.118806,37.698356,-122.118806,16001,R,San Lorenzo,Alameda,CA,94580-1113,71,10,5,0,Fair,1,FALSE,1,Day,-2.3025850929940455
A-3841783,2019-11-11T19:44:00Z,33.96466,-118.070602,33.96466,-118.070602,8500,R,Whittier,Los Angeles,CA,90606-3320,62,9,0,0,Fair,0,FALSE,1,Night,-2.3025850929940455
A-3851326,2019-10-02T16:10:00Z,33.989174,-118.278277,33.989174,-118.278277,298,L,Los Angeles,Los Angeles,CA,90003-1147,74,10,13,0,Fair,1,FALSE,1,Day,-2.3025850929940455
A-3826767,2019-10-31T20:18:22Z,45.4303,-123.82412,45.42905,-123.82416,4000,L,Tillamook,Tillamook,OR,97141-8648,39,10,0,0,Fair,0,FALSE,0,Night,-1.6820086052689358
A-3882125,2019-09-14T03:20:53Z,43.700755,-123.260237,43.699874,-123.264283,3714,L,Drain,Douglas,OR,97435-8736,61,10,0,0,Fair,1,FALSE,0,Night,-1.1679623668029029
A-3825907,2019-10-30T15:26:00Z,34.1649,-118.384464,34.1649,-118.384464,11600,R,North Hollywood,Los Angeles,CA,91601-3015,72,10,7,0,Fair,0,FALSE,0,Day,-2.3025850929940455
A-4188786,2019-05-23T13:21:00Z,40.0418,-111.54361,40.041149,-111.542106,10456,L,Spanish Fork,Utah,UT,84660,50,10,14,0,Cloudy,1,FALSE,0,Day,-1.6554818509355071
A-4053212,2018-04-06T19:51:30Z,40.43882,-80.072084,40.439836,-80.077774,100,R,Pittsburgh,Allegheny,PA,15205-2604,43,9,20.7,0,Light Rain,0,FALSE,0,Night,-0.898942093539542
A-3769327,2019-12-09T13:29:00Z,45.58804,-93.5115,45.58804,-93.5115,5000,L,Princeton,Mille Lacs,MN,55371-6030,12,3,15,0,Light Snow,0,FALSE,0,Day,-2.3025850929940455
A-3858200,2019-09-23T07:32:00Z,40.023249,-121.163846,40.023249,-121.163846,26042,L,Twain,Plumas,CA,95984,59,10,0,0,Fair,0,FALSE,0,Day,-2.3025850929940455
A-3933001,2019-01-26T10:30:01Z,44.47606,-74.84493,44.480238,-74.85113,3215,L,South Colton,St. Lawrence,NY,13687,10,2,3.5,0,Light Snow,0,FALSE,0,Day,-0.6539264674066639
A-4178851,2019-04-02T17:02:15Z,42.42729,-122.8496,42.426492,-122.849999,2344,R,White City,Jackson,OR,97503-1718,57,9,9,0,Light Rain,1,FALSE,1,Day,-1.8388510767619055
A-3792704,2019-10-05T10:49:00Z,38.434188,-122.726202,38.434188,-122.726202,301,R,Santa Rosa,Sonoma,CA,95401-6148,70,10,5,0,Fair,1,FALSE,0,Day,-2.3025850929940455
A-3820059,2019-10-26T10:25:00Z,41.597022,-122.340261,41.597022,-122.340261,11701,R,Montague,Siskiyou,CA,96064,56,10,17,0,Fair,0,FALSE,0,Day,-2.3025850929940455
A-3855015,2019-09-20T06:00:00Z,39.12723,-121.56353,39.12723,-121.56353,1478,L,Marysville,Yuba,CA,95901-6205,58,10,10,0,Fair,0,FALSE,0,Night,-2.3025850929940455
A-3794312,2019-10-07T07:12:10Z,43.03223,-87.954580000000007,43.03228,-87.96127,145,L,Milwaukee,Milwaukee,WI,53208,45,10,6,0,Fair,0,TRUE,0,Day,-0.8255363686056908
A-3871897,2019-09-05T15:16:00Z,37.380902,-121.907719,37.380902,-121.907719,549,L,San Jose,Santa Clara,CA,95112-1017,75,10,10,0,Partly Cloudy,0,FALSE,0,Day,-2.3025850929940455
A-4194269,2019-06-02T14:39:31Z,42.462774,-122.724236,42.462607,-122.724391,7856,R,Eagle Point,Jackson,OR,97524-5577,88,10,8,0,Partly Cloudy,0,FALSE,0,Day,-2.1715568305876416
A-3830548,2019-11-02T23:13:00Z,40.299367,-122.635237,40.299367,-122.635237,13667,L,Cottonwood,Tehama,CA,96022,50,10,0,0,Fair,0,FALSE,0,Night,-2.3025850929940455
A-3771065,2019-12-10T06:43:43Z,44.05265,-123.28669,44.05265,-123.28669,27095,L,Eugene,Lane,OR,97402,38,0.06,0,0,Fog,0,FALSE,0,Night,-2.3025850929940455
A-4192484,2019-04-30T18:08:49Z,38.94204,-77.02002,38.94208,-77.01859,4197,R,Washington,District of Columbia,DC,20011-7922,78,10,5,0,Fair,1,FALSE,1,Day,-1.731605546408308
A-3848344,2019-09-30T16:38:00Z,39.313075,-120.447127,39.313075,-120.447127,53095,R,Norden,Placer,CA,95724,43,10,6,0,Cloudy,0,FALSE,0,Day,-2.3025850929940455
A-3809491,2019-10-18T07:47:00Z,33.7791,-117.888768,33.7791,-117.888768,605,L,Orange,Orange,CA,92868-4930,65,10,6,0,Mostly Cloudy,0,FALSE,0,Day,-2.3025850929940455
A-3751760,2019-12-26T00:32:47Z,39.64902,-75.30952,39.6457,-75.29741,1169,L,Pilesgrove,Salem,NJ,08098-3110,29,9,0,0,Fair,0,FALSE,1,Night,-0.24334625863172918
A-4239117,2019-08-23T19:10:56Z,42.34812,-87.88928,42.34781,-87.89372,3799,L,Waukegan,Lake,IL,60085,66,10,10,0,Fair,0,TRUE,0,Day,-1.1147416705979933
A-3751376,2019-12-23T23:10:30Z,34.52921,-120.19654,34.52934,-120.1965,2398,R,Goleta,Santa Barbara,CA,93117,43,9,3,0,Fair,0,FALSE,0,Night,-2.2164073967529934
A-4230062,2019-08-03T12:21:33Z,42.160491,-123.6475,42.160364,-123.647546,450,R,Cave Junction,Josephine,OR,97523-9686,66,10,5,0,Fair,0,FALSE,0,Day,-2.2164073967529934
A-3874761,2019-09-09T00:39:43Z,40.66904,-73.99303,40.670261000000004,-73.992029,531,L,Brooklyn,Kings,NY,11215-4623,69,10,6,0,Partly Cloudy,0,FALSE,1,Night,-1.6144504542576446
A-3849517,2019-10-01T16:17:00Z,37.850944,-121.426049,37.850944,-121.426049,9334,L,Stockton,San Joaquin,CA,95206-9686,74,10,9,0,Fair,0,FALSE,0,Day,-2.3025850929940455
A-4189171,2019-05-24T08:40:28Z,24.99824,-80.537663,25.00135,-80.53615,90201,R,Tavernier,Monroe,FL,33070,79,10,13,0,Fair,0,FALSE,0,Day,-1.0936247471570708
A-3770047,2019-12-09T07:48:00Z,34.061029,-118.278237,34.061029,-118.278237,2405,R,Los Angeles,Los Angeles,CA,90057-3123,54,10,0,0,Partly Cloudy,0,FALSE,1,Day,-2.3025850929940455
A-3780387,2019-12-16T00:43:00Z,34.019336,-117.339238,34.019336,-117.339238,2,R,Riverside,Riverside,CA,92507-1028,45,10,0,0,Partly Cloudy,0,FALSE,0,Night,-2.3025850929940455
A-3755787,2019-12-28T13:55:00Z,44.0523,-91.69162,44.0523,-91.69162,462,R,Winona,Winona,MN,55987-1900,34,1,12,0,Fog,0,FALSE,0,Day,-2.3025850929940455
A-3888758,2019-03-10T07:59:34Z,45.302612,-121.764935,45.302679,-121.767146,87340,L,Government Camp,Clackamas,OR,97028,34,10,7,0,Fair,0,FALSE,0,Day,-1.570217199280819
A-3780023,2019-12-16T16:43:40Z,45.91011,-118.38462,45.91011,-118.38462,82188,L,Milton Freewater,Umatilla,OR,97862-7300,26,0.25,0,0,Fog,0,FALSE,0,Night,-2.3025850929940455
A-3781299,2019-12-17T07:47:44Z,48.03179,-122.75825,48.03133,-122.75656,3499,L,Port Hadlock,Jefferson,WA,98339-9759,49,10,12,0,Cloudy,0,FALSE,0,Night,-1.6928195213731514
A-3856497,2019-09-21T01:50:00Z,33.939104,-117.226258,33.939104,-117.226258,12478,L,Moreno Valley,Riverside,CA,92553,56,10,0,0,Fair,0,FALSE,1,Night,-2.3025850929940455
A-3843769,2019-11-13T06:47:00Z,40.69939,-111.92674,40.69939,-111.92674,1223,R,West Valley City,Salt Lake,UT,84119,39,10,0,0,Mostly Cloudy,0,FALSE,0,Night,-2.3025850929940455
A-3846374,2019-11-19T17:33:49Z,47.57219,-122.33432,47.57148,-122.33425,3567,R,Seattle,King,WA,98134-1804,51,10,5,0,Mostly Cloudy,0,FALSE,0,Night,-1.9038089730366778
A-4193007,2019-05-01T14:56:29Z,39.87201,-75.10172,39.87453,-75.09975,490,L,Bellmawr,Camden,NJ,08031-1901,61,10,12,0,Cloudy,0,FALSE,0,Day,-1.1940224734727678
A-3864625,2019-09-28T08:21:00Z,38.879193,-121.127768,38.879193,-121.127768,12981,R,Newcastle,Placer,CA,95658,54,8,7,0,Cloudy,0,FALSE,0,Day,-2.3025850929940455
A-3795117,2019-10-07T11:56:00Z,34.018441,-118.280063,34.018441,-118.280063,422,L,Los Angeles,Los Angeles,CA,90007-4364,82,10,0,0,Fair,0,FALSE,0,Day,-2.3025850929940455
A-3873083,2019-09-06T13:11:00Z,38.19128,-121.086265,38.19128,-121.086265,18804,R,Lodi,San Joaquin,CA,95240,87,10,6,0,Fair,0,FALSE,0,Day,-2.3025850929940455
A-3828031,2019-11-01T23:15:00Z,47.78938,-95.01322,47.77898,-95.00759,8652,R,Puposky,Beltrami,MN,56667-6888,29,10,12,0,Cloudy,0,FALSE,0,Night,-0.14502577205025774
A-4169466,2019-04-11T19:14:43Z,45.282999,-123.17365,45.276879,-123.1738,9324,R,Carlton,Yamhill,OR,97111-9577,52,10,8,0,Cloudy,0,FALSE,0,Day,-0.6481738149172142
A-3768877,2019-12-09T20:16:30Z,43.03301,-83.64752,43.03301,-83.64752,3199,L,Flint,Genesee,MI,48506-3930,50,10,14,0,Cloudy,0,FALSE,0,Night,-2.3025850929940455
A-3767753,2019-12-08T13:24:00Z,40.5349,-112.29847,40.5349,-112.29847,230,R,Tooele,Tooele,UT,84074-1657,40,10,3,0,Cloudy,0,FALSE,0,Day,-2.3025850929940455
A-4206899,2019-06-30T20:32:12Z,44.566348,-123.11003,44.533298,-123.11009,33917,R,Tangent,Linn,OR,97389-9708,69,10,16,0,Mostly Cloudy,0,FALSE,0,Day,0.8687797492031033
A-3765042,2019-12-07T00:47:18Z,43.21183,-77.93962,43.20914,-77.94047,178,R,Brockport,Monroe,NY,14420-2245,27,10,12,0,Fair,0,FALSE,0,Night,-1.2344320118106444
A-4218003,2019-07-09T16:50:00Z,41.17618,-112.006261,41.17618,-112.006259,1108,R,Ogden,Weber,UT,84405-3723,85,10,5,0,Fair,0,FALSE,0,Day,-2.3025850929940455
A-3756144,2019-12-28T09:47:00Z,38.167011,-121.596221,38.167011,-121.596221,799,L,Isleton,Sacramento,CA,95641-9751,50,10,0,0,Fair,0,FALSE,0,Day,-2.3025850929940455
A-3840709,2019-11-11T15:05:49Z,42.5676,-84.96709,42.56748,-84.97489,6606,L,Charlotte,Eaton,MI,48813-9585,25,1,8,0,Light Snow,0,FALSE,0,Day,-0.6991652528855083
A-3846575,2019-11-20T05:49:02Z,44.5778,-124.0659,44.5778,-124.0659,8276,L,South Beach,Lincoln,OR,97366,37,10,3,0,Fair,0,FALSE,0,Night,-2.3025850929940455
A-3811862,2019-10-20T12:50:00Z,36.838218,-121.683763,36.838218,-121.683763,4,R,Royal Oaks,Monterey,CA,95076-9142,72,10,7,0,Fair,0,FALSE,0,Day,-2.3025850929940455
A-3782804,2019-12-18T04:10:00Z,37.627328,-120.997011,37.627328,-120.997011,244,L,Modesto,Stanislaus,CA,95351,46,10,3,0,Cloudy,0,FALSE,0,Night,-2.3025850929940455
A-4231768,2019-08-07T10:14:11Z,38.83921,-104.25908,38.83832,-104.38716,30922,L,Calhan,El Paso,CO,80808,76,10,15,0,Fair,0,FALSE,0,Day,1.9449096487217297
A-4184576,2019-05-14T06:15:27Z,42.156243,-121.861444,42.152736,-121.866789,8740,R,Klamath Falls,Klamath,OR,97601-9582,54,10,12,0,Fair,0,FALSE,0,Day,-0.7635696448564913
A-3834182,2019-11-06T16:07:50Z,42.58323,-82.99324,42.582,-82.99273,38791,L,Sterling Heights,Macomb,MI,48313,38,10,6,0,Mostly Cloudy,0,FALSE,0,Day,-1.6660082639224947
A-3750340,2019-12-23T12:41:00Z,34.135008,-117.987039,34.135008,-117.987039,798,R,Monrovia,Los Angeles,CA,91016,57,10,10,0,Cloudy,0,FALSE,0,Day,-2.3025850929940455
A-3851202,2019-10-02T11:56:30Z,36.26825,-121.805435,36.26825,-121.805435,46924,L,Big Sur,Monterey,CA,93920-9556,64,10,10,0,Fair,0,FALSE,0,Day,-2.3025850929940455
A-3838066,2019-11-08T21:29:00Z,38.260167,-120.742876,38.260167,-120.742876,7299,R,Valley Springs,Calaveras,CA,95252-9607,48,10,0,0,Fair,0,FALSE,0,Night,-2.3025850929940455
A-4214895,2019-07-01T05:34:50Z,45.521688,-121.095966,45.51186,-121.089654,2237,L,The Dalles,Wasco,OR,97058,63,10,5,0,Partly Cloudy,0,FALSE,0,Day,-0.16841865162496325
A-3942106,2018-12-08T09:38:29Z,33.7182,-84.23985,33.7135,-84.23979,2356,R,Decatur,Dekalb,GA,30032-6136,39.9,3,6.9,0.08,Light Rain,0,TRUE,0,Day,-0.8556661100577201
A-3865389,2019-09-29T13:21:33Z,46.192199,-123.759527,46.191533,-123.758074,37718,L,Astoria,Clatsop,OR,97103-8556,51,10,17,0,Cloudy,0,FALSE,0,Day,-1.6982691261407161
A-3851605,2019-09-17T13:19:26Z,26.16564,-80.17094,26.16564,-80.17094,2101,L,Oakland Park,Broward,FL,33311-1523,90,10,9,0,Partly Cloudy,0,FALSE,1,Day,-2.3025850929940455
A-4218424,2019-07-10T06:11:36Z,38.686469,-90.35255,38.68648,-90.35352,8768,L,Saint Louis,St. Louis County,MO,63114-6106,78,10,3,0,Fair,0,FALSE,0,Day,-1.8838747581358606
A-4210788,2019-08-28T20:37:00Z,37.951992,-122.536707,37.951992,-122.536707,649,L,Kentfield,Marin,CA,94904-1639,64,6,8,0,Fair,0,FALSE,0,Night,-2.3025850929940455
A-3847935,2019-09-30T00:06:00Z,40.58776,-111.967333,40.58776,-111.967938,9000,R,West Jordan,Salt Lake,UT,84088,42,10,0,0,Partly Cloudy,0,FALSE,1,Night,-2.0249533563957662
A-3768689,2019-12-08T16:17:00Z,34.136097,-117.331106,34.136097,-117.331106,1885,L,San Bernardino,San Bernardino,CA,92411,57,3,6,0,Rain,0,FALSE,1,Day,-2.3025850929940455
A-3806023,2019-10-16T05:52:58Z,45.87094,-122.8151,45.87053,-122.81527,60356,R,Saint Helens,Columbia,OR,97051-1239,51,5,0,0.02,Rain,0,FALSE,0,Night,-2.047942874620465
A-3831543,2019-11-04T08:27:30Z,44.28512,-121.5332,44.27779,-121.51722,68624,R,Sisters,Deschutes,OR,97759,47,10,6,0,Fair,0,FALSE,0,Day,0.03825871211709027
A-4179578,2019-05-04T14:14:44Z,37.315314,-79.480327,37.321177,-79.491411,2186,R,Bedford,Bedford County,VA,24523-4419,80,10,5,0,Mostly Cloudy,0,FALSE,0,Day,-0.18512548412668892
A-3807192,2019-10-18T00:42:52Z,27.88576,-82.32939,27.88153,-82.32677,6597,L,Riverview,Hillsborough,FL,33578-4358,70,10,0,0,Mostly Cloudy,0,FALSE,0,Night,-0.8370175509796471
A-4201569,2019-06-18T16:39:47Z,42.31552,-88.11128,42.31552,-88.11128,24499,R,Grayslake,Lake,IL,60030,70,10,9,0,Fair,0,FALSE,1,Day,-2.3025850929940455
A-3848419,2019-09-29T21:50:00Z,34.168936,-118.612829,34.168936,-118.612829,22300,L,Woodland Hills,Los Angeles,CA,91364-1520,61,10,0,0,Fair,0,FALSE,0,Night,-2.3025850929940455
A-3865307,2019-09-29T00:26:00Z,40.58776,-111.967333,40.58776,-111.967938,9000,R,West Jordan,Salt Lake,UT,84088,49,10,3,0,Mostly Cloudy,0,FALSE,1,Night,-2.0249533563957662
A-4207720,2019-06-01T06:46:53Z,44.129511,-122.477417,44.116615,-122.461336,48117,R,Vida,Lane,OR,97488-9736,55,10,0,0,Patches of Fog,0,FALSE,0,Day,0.25928259793008296
A-3802669,2019-10-13T18:10:00Z,38.869676,-121.707989,38.869676,-121.707989,5292,R,Knights Landing,Sutter,CA,95645,78,10,0,0,Partly Cloudy,0,FALSE,0,Day,-2.3025850929940455
A-4190282,2019-05-28T10:41:19Z,38.952101999999996,-77.073788,38.95428,-77.07193,4796,L,Washington,District of Columbia,DC,20016,75,10,10,0,Cloudy,0,FALSE,1,Day,-1.2694006096483912
A-3779217,2019-12-15T02:26:00Z,33.181574,-117.326883,33.181574,-117.326883,2340,L,Carlsbad,San Diego,CA,92008,54,8,5,0,Cloudy,0,FALSE,0,Night,-2.3025850929940455
A-4197625,2019-06-09T13:08:34Z,38.038229,-103.682914,38.037827,-103.681921,21489,L,Rocky Ford,Otero,CO,81067-9406,68,10,14,0,Mostly Cloudy,0,FALSE,0,Day,-1.8263509139976741
A-4175439,2019-04-23T10:18:47Z,45.070849,-123.948236,45.069076,-123.947013,50952,L,Neskowin,Tillamook,OR,97149,54,3,7,0,Cloudy,0,FALSE,0,Day,-1.443923473956527
A-3868387,2019-09-02T15:13:00Z,33.991957,-117.931836,33.991957,-117.931836,1649,L,Hacienda Heights,Los Angeles,CA,91745-3832,92,10,8,0,Fair,0,FALSE,0,Day,-2.3025850929940455
A-3847650,2019-11-25T18:11:28Z,43.53883,-121.4654,43.53883,-121.4654,68096,R,La Pine,Klamath,OR,97739,30,10,0,0,Cloudy,0,FALSE,0,Night,-2.3025850929940455
A-3879415,2019-09-12T08:16:47Z,47.66366,-122.37078,47.66366,-122.37078,4801,L,Seattle,King,WA,98107,60,10,9,0,Mostly Cloudy,1,FALSE,1,Day,-2.3025850929940455
A-3780025,2019-12-16T16:52:34Z,45.77775,-123.42309,45.77775,-123.42309,61971,R,Timber,Tillamook,OR,97144,42,10,3,0,Fair,0,FALSE,0,Night,-2.3025850929940455
A-3797023,2019-10-09T10:03:55Z,41.76412,-87.9002,41.76652,-87.90327,7098,R,La Grange,Cook,IL,60525,63,10,9,0,Fair,0,FALSE,0,Day,-1.1116975282167652
A-3851209,2019-10-02T12:23:00Z,34.057941,-118.255208,34.057941,-118.255208,200,L,Los Angeles,Los Angeles,CA,90012-2038,81,10,0,0,Fair,0,FALSE,1,Day,-2.3025850929940455
A-3841368,2019-11-11T17:32:04Z,38.03185,-121.05016,38.04036,-121.03235,6042,R,Linden,San Joaquin,CA,95236-9476,69,10,0,0,Cloudy,0,FALSE,0,Night,0.21026092548319605
A-3776024,2019-12-13T06:36:00Z,40.23866,-110.06747,40.23866,-110.06747,4354,L,Roosevelt,Duchesne,UT,84066,30,0.75,6,0,Fog,0,FALSE,0,Night,-2.3025850929940455
A-4217584,2019-07-08T20:09:20Z,47.719209,-122.23706,47.727495,-122.243972,13207,L,Kirkland,King,WA,98034-5107,68,10,6,0,Fair,0,FALSE,0,Day,-0.27971390280260405
A-3834698,2019-11-06T12:45:59Z,39.73813,-104.37745,39.74134,-104.62177,2101,L,Bennett,Adams,CO,80102,32,0.25,15,0,Fog,0,FALSE,0,Day,2.5713136775287393
A-4202567,2019-06-20T08:12:10Z,41.9684,-87.71338,41.9684,-87.71338,3399,L,Chicago,Cook,IL,60625-5243,59,7,17,0.04,Cloudy,0,FALSE,1,Day,-2.3025850929940455
A-3849314,2019-10-01T17:51:16Z,45.265886,-123.021901,45.264269,-123.023374,20979,L,Dundee,Yamhill,OR,97115-9021,62,10,7,0,Partly Cloudy,0,FALSE,0,Day,-1.4567168254164364
A-3871963,2019-09-05T17:34:00Z,37.682471,-122.115188,37.682471,-122.115188,17702,L,Hayward,Alameda,CA,94541-1604,68,10,13,0,Fair,1,FALSE,0,Day,-2.3025850929940455
A-3822355,2019-10-28T07:45:00Z,37.253944,-121.921551,37.253944,-121.921551,14448,L,San Jose,Santa Clara,CA,95124-3642,48,10,0,0,Partly Cloudy,0,FALSE,0,Day,-2.3025850929940455
A-3823405,2019-10-29T16:28:00Z,44.35495,-92.78295,44.34877,-92.7754,40949,L,Zumbrota,Goodhue,MN,55992-5052,39,10,3,0,Fair,0,FALSE,0,Day,-0.40496523306651344
A-3784777,2019-12-19T20:01:00Z,41.094445,-121.639276,41.094445,-121.639276,27653,R,Burney,Shasta,CA,96013,47,3,3,0,Cloudy,0,FALSE,0,Night,-2.3025850929940455
A-4238249,2019-08-21T10:51:27Z,48.45701,-122.23518,48.45701,-122.23518,12985,R,Mount Vernon,Skagit,WA,98273-8010,63,4,7,0.01,Cloudy,0,FALSE,0,Day,-2.3025850929940455
A-4209718,2019-08-27T14:09:30Z,33.83251,-117.52874,33.833068,-117.527703,7460,L,Corona,Riverside,CA,92881-4853,92,10,12,0,Fair,0,FALSE,0,Day,-1.7660917224794772
A-4238298,2019-08-21T14:59:25Z,43.283689,-124.230481,43.28651,-124.22832,93415,R,Coos Bay,Coos,OR,97420-8463,66,10,9,0,Cloudy,0,FALSE,0,Day,-1.1301029557594804
A-3813391,2019-10-21T15:57:00Z,33.3436,-117.13136,33.3436,-117.13136,9393,L,Pala,San Diego,CA,92059,91,10,3,0,Fair,0,FALSE,0,Day,-2.3025850929940455
A-3814079,2019-10-22T12:21:31Z,43.972,-121.34633,43.9704,-121.34655,59727,L,Bend,Deschutes,OR,97702,63,10,12,0,Partly Cloudy,0,FALSE,0,Day,-1.5558971455060704
A-3777444,2019-12-14T12:47:00Z,47.37904,-94.57966,47.37904,-94.57966,30,L,Cass Lake,Cass,MN,56633,2,10,10,0,Fair,0,FALSE,0,Day,-2.3025850929940455
A-3908301,2019-02-12T09:14:14Z,39.297495,-77.121927,39.31039,-77.10875,3173,L,Woodbine,Howard,MD,21797-7932,32,7,3.5,0.13,Overcast,0,FALSE,0,Day,0.211880359035499
A-3794007,2019-10-06T16:25:00Z,34.018906,-118.173887,34.018906,-118.173887,1186,L,Los Angeles,Los Angeles,CA,90022-4847,80,10,6,0,Fair,0,FALSE,1,Day,-2.3025850929940455
A-4233344,2019-08-10T19:37:52Z,43.442303,-124.221282,43.440845,-124.220567,66402,L,North Bend,Coos,OR,97459-7602,66,10,7,0,Mostly Cloudy,0,FALSE,0,Day,-1.5750364857167678
A-4215907,2019-07-03T21:20:36Z,47.686795,-122.313223,47.68669,-122.31337,7993,L,Seattle,King,WA,98115,67,10,0,0,Fair,0,FALSE,1,Night,-2.2072749131897207
A-4184314,2019-05-14T09:09:44Z,36.207156,-78.98847,36.206564,-78.989572,8770,L,Rougemont,Orange,NC,27572-8856,54,10,9,0,Fair,0,FALSE,0,Day,-1.7486999797676082
A-3854940,2019-09-20T17:26:32Z,45.246668,-123.044239,45.246262,-123.045114,18990,R,Dundee,Yamhill,OR,97115-9016,70,10,6,0,Mostly Cloudy,0,FALSE,0,Day,-1.8904754421672127
A-4207288,2019-05-30T22:55:35Z,45.41856,-122.96079,45.41839,-122.96071,14189,L,Hillsboro,Washington,OR,97123-9324,62,10,9,0,Fair,0,FALSE,0,Night,-2.1892564076870427
A-4225225,2019-07-24T15:55:50Z,45.53065,-122.8382,45.52936,-122.83478,15564,R,Beaverton,Washington,OR,97006-5619,79,10,8,0,Fair,0,FALSE,0,Day,-1.244794798846191
A-3769129,2019-12-09T08:25:00Z,44.81701,-95.48348,44.81701,-95.48348,84928,R,Sacred Heart,Renville,MN,56285,9,1,25,0,Light Snow / Windy,0,FALSE,0,Day,-2.3025850929940455
A-4177966,2019-04-01T16:56:54Z,38.413073,-82.354113,38.412818,-82.343426,4801,L,Huntington,Cabell,WV,25705-1941,47,10,6,0,Fair,0,FALSE,0,Day,-0.38713415142344104
A-3916416,2019-02-25T06:20:36Z,45.317671,-118.074469,45.316215,-118.072161,2364,L,La Grande,Union,OR,97850-3431,24.8,3,4.6,0.01,Light Snow,0,FALSE,0,Night,-1.3823023398503531
A-3852620,2019-09-17T13:14:00Z,35.369419,-118.949797,35.369419,-118.949797,822,L,Bakersfield,Kern,CA,93306,77,10,12,0,Fair,0,FALSE,0,Day,-2.3025850929940455
A-3818907,2019-10-24T23:14:00Z,33.871254,-118.275373,33.871254,-118.275373,100,R,Carson,Los Angeles,CA,90746,74,10,0,0,Partly Cloudy,1,FALSE,1,Night,-2.3025850929940455
A-3828341,2019-11-01T17:30:48Z,37.54792,-122.34722,37.55245,-122.33975,1095,L,Hillsborough,San Mateo,CA,94010-7267,67,10,8,0,Fair,0,FALSE,0,Day,-0.4861330111756192
A-3804267,2019-10-14T19:53:00Z,37.051497,-122.037681,37.051497,-122.037681,1208,R,Scotts Valley,Santa Cruz,CA,95066-2929,53,10,0,0,Partly Cloudy,0,FALSE,0,Night,-2.3025850929940455
A-3791730,2019-10-04T07:36:00Z,34.502539,-118.627457,34.502539,-118.627457,32084,L,Castaic,Los Angeles,CA,91384-3927,57,10,0,0,Fair,0,FALSE,0,Day,-2.3025850929940455
A-3793029,2019-10-05T11:55:00Z,34.250613,-119.001731,34.250613,-119.001731,3076,R,Somis,Ventura,CA,93066-9547,76,10,9,0,Fair,0,FALSE,0,Day,-2.3025850929940455
A-4231878,2019-08-07T06:22:10Z,42.288726,-122.834796,42.288648,-122.8347,100,R,Medford,Jackson,OR,97501-8804,67,10,3,0,Fair,0,FALSE,0,Day,-2.2349264445202306
A-3754212,2019-12-27T18:23:00Z,46.17139,-95.03963,46.17139,-95.03963,688,L,Eagle Bend,Todd,MN,56446,18,5,7,0,Fair,0,FALSE,0,Night,-2.3025850929940455
A-3952129,2018-12-22T19:40:59Z,46.154386,-123.417407,46.152959,-123.414073,46989,R,Clatskanie,Clatsop,OR,97016-8279,39.9,6,17.3,0.11,Rain,0,FALSE,0,Night,-1.244794798846191
A-3890437,2019-03-13T07:00:22Z,45.343854,-121.943,45.3438,-121.94277,70158,R,Rhododendron,Clackamas,OR,97049,41,10,0,0,Cloudy,0,FALSE,0,Night,-2.1892564076870427
A-3851197,2019-10-02T11:52:30Z,36.26825,-121.805435,36.26825,-121.805435,46924,L,Big Sur,Monterey,CA,93920-9556,64,10,10,0,Fair,0,FALSE,0,Day,-2.3025850929940455
A-3830741,2019-11-02T22:50:00Z,35.237722,-118.988409,35.237722,-118.988409,1431,R,Bakersfield,Kern,CA,93307,55,7,3,0,Fair,0,FALSE,0,Night,-2.3025850929940455
A-4226332,2019-07-26T20:22:08Z,42.279304,-123.616024,42.278425,-123.616328,18396,L,Cave Junction,Josephine,OR,97523-9105,59,10,0,0,Cloudy,0,FALSE,0,Day,-1.8140050781753747
A-3811663,2019-10-20T19:28:00Z,39.767606,-120.61945,39.767606,-120.61945,1712,R,Blairsden Graeagle,Plumas,CA,96103,52,10,5,0,Fair,0,FALSE,0,Night,-2.3025850929940455
A-3870033,2019-09-03T19:51:00Z,36.399762,-121.252777,36.399762,-121.252777,35998,L,Soledad,Monterey,CA,93960-9717,65,10,10,0,Fair,0,FALSE,0,Night,-2.3025850929940455
A-3866928,2019-09-01T01:26:28Z,30.287058,-81.506132,30.287084,-81.503804,11874,R,Jacksonville,Duval,FL,32246-6671,80,8,5,0.21,Light Rain,0,FALSE,0,Night,-1.4312917270506262
A-3760102,2019-12-03T12:39:51Z,42.5651,-73.68292,42.56917,-73.68511,1699,L,Castleton On Hudson,Rensselaer,NY,12033-3223,31,10,12,0,Fair,0,FALSE,1,Day,-0.9113031903631159
A-3763467,2019-12-04T17:42:00Z,33.62966,-117.599144,33.62966,-117.599144,22841,L,Rancho Santa Margarita,Orange,CA,92688,61,7,5,0.02,Light Rain,0,FALSE,0,Night,-2.3025850929940455
A-3797292,2019-10-09T06:57:54Z,47.15929,-122.43424,47.15756,-122.43422,10800,L,Tacoma,Pierce,WA,98444-5734,33,10,3,0,Fair,0,FALSE,1,Night,-1.5141277326297755
A-3767749,2019-12-08T12:18:00Z,40.55999,-111.93868,40.55999,-111.93868,10524,R,South Jordan,Salt Lake,UT,84095-8503,39,10,3,0,Cloudy,0,FALSE,0,Day,-2.3025850929940455
A-3859332,2019-09-24T07:43:07Z,45.11558,-123.31674,45.130938,-123.297812,19693,R,Mcminnville,Yamhill,OR,97128-8836,61,10,8,0,Cloudy,0,FALSE,0,Day,0.40945712937770185
A-3834870,2019-11-06T17:49:39Z,45.5994,-117.56345,45.58102,-117.5394,81547,L,Wallowa,Wallowa,OR,97885,46,10,12,0,Fair,0,FALSE,0,Night,0.5999347988377666
A-3770489,2019-12-09T19:18:00Z,34.040718,-117.706938,34.040718,-117.706938,4500,L,Chino,San Bernardino,CA,91710-1670,54,10,3,0,Fair,0,FALSE,1,Night,-2.3025850929940455
A-4178708,2019-04-02T05:56:08Z,39.9862,-104.918781,39.9862,-104.919282,5639,L,Brighton,Adams,CO,80602-6008,35,10,5,0,Cloudy,0,FALSE,0,Night,-2.0635681925235456
A-3761498,2019-12-04T23:36:03Z,43.40819,-84.74654,43.40822,-84.76643,8001,L,Elwell,Gratiot,MI,48832-9711,33,10,7,0,Cloudy,0,FALSE,0,Night,0.09349034308733897
A-4200625,2019-06-15T03:05:00Z,40.69654,-112.032437,40.69654,-112.030566,5919,R,West Valley City,Salt Lake,UT,84128-2607,65,10,5,0,Partly Cloudy,0,FALSE,0,Night,-1.6194882482876019
A-3783439,2019-12-18T15:02:00Z,33.994476,-117.967281,33.994476,-117.967281,15834,R,Hacienda Heights,Los Angeles,CA,91745-4249,64,10,3,0,Cloudy,0,FALSE,0,Day,-2.3025850929940455
A-3788992,2019-12-22T09:49:00Z,34.471462,-120.182309,34.471462,-120.182309,16259,L,Goleta,Santa Barbara,CA,93117,60,10,20,0,Mostly Cloudy,0,FALSE,0,Day,-2.3025850929940455
A-3764045,2019-12-05T14:37:42Z,46.16951,-123.723,46.16951,-123.723,39903,L,Astoria,Clatsop,OR,97103-8219,50,10,6,0,Cloudy,0,FALSE,0,Day,-2.3025850929940455
A-3831558,2019-11-04T10:23:34Z,44.64174,-123.13042,44.64158,-123.1277,2564,L,Albany,Benton,OR,97321-1438,41,0.75,0,0,Fog,0,FALSE,0,Day,-1.4524341636244356
A-4229662,2019-08-01T23:45:10Z,44.505636,-122.873534,44.503403,-122.86471,4589,R,Lebanon,Linn,OR,97355-3527,61,10,6,0,Fair,1,FALSE,0,Night,-0.5780343734594406
A-3829099,2019-11-01T17:11:00Z,33.739118,-117.074841,33.739118,-117.074841,33607,R,Hemet,Riverside,CA,92545,79,10,7,0,Fair,0,FALSE,0,Day,-2.3025850929940455
A-3890143,2019-02-12T12:00:00Z,38.83368,-77.34477,38.83297,-77.336561,11505,L,Fairfax,Fairfax City,VA,22030-5412,35.1,4,8.1,0.01,Overcast,1,FALSE,1,Day,-0.6069694843188929
A-3761769,2019-12-04T13:13:33Z,35.273378,-90.407883,35.273378,-90.407883,13946,R,Earle,Crittenden,AR,72331,58,10,6,0,Fair,0,FALSE,0,Day,-2.3025850929940455
A-4091388,2018-01-08T08:46:01Z,39.47966,-85.47864,39.49707,-85.47611,9213,L,Milroy,Rush,IN,46156-9694,36,5,10.4,0,Overcast,0,FALSE,0,Day,0.2700271372130602
A-4209477,2019-08-27T07:44:00Z,33.015294,-117.199226,33.015294,-117.199226,16637,R,Rancho Santa Fe,San Diego,CA,92067,71,7,0,0,Cloudy,0,FALSE,0,Day,-2.3025850929940455
A-3763055,2019-12-04T11:05:00Z,34.089976,-118.259153,34.089976,-118.259153,1901,R,Los Angeles,Los Angeles,CA,90039-3982,58,1,3,0,Rain,0,FALSE,1,Day,-2.3025850929940455
A-4167639,2019-04-08T08:00:00Z,34.110815,-78.65514,34.099306,-78.650944,8587,R,Nakina,Columbus,NC,28455-9279,64,0.5,3,0,Fog,0,FALSE,0,Day,-0.07149600170507005
A-3798528,2019-10-10T07:11:00Z,40.59522,-112.05812,40.57978,-112.06095,8591,R,West Jordan,Salt Lake,UT,84081,32,10,10,0,Mostly Cloudy,0,FALSE,0,Night,0.16296882827813972
A-3806717,2019-10-16T12:39:00Z,34.506443,-117.896562,34.506443,-117.896562,34198,R,Pearblossom,Los Angeles,CA,93553-3128,81,10,0,0,Fair,0,FALSE,1,Day,-2.3025850929940455
A-3919891,2019-01-03T17:25:00Z,40.690631,-112.26412,40.692908,-112.26373,8855,R,Tooele,Tooele,UT,84074-9532,23,10,3,0,Partly Cloudy,0,FALSE,0,Night,-1.3509272172825992
A-3851629,2019-09-17T23:35:40Z,43.38443,-97.99351,43.40087,-97.42082,41019,L,Parkston,Hutchinson,SD,57366,78,10,15,0,Fair,0,FALSE,0,Night,3.3630108002769146
A-3749479,2019-12-23T17:39:00Z,40.545168,-124.086259,40.545168,-124.086259,3906,L,Hydesville,Humboldt,CA,95547-9428,43,10,5,0,Fair,0,FALSE,0,Night,-2.3025850929940455
A-3862617,2019-09-26T13:39:00Z,33.810147,-117.832076,33.810147,-117.832076,1998,L,Orange,Orange,CA,92867-5109,78,10,8,0,Mostly Cloudy,0,FALSE,0,Day,-2.3025850929940455
A-3760049,2019-12-31T18:47:00Z,34.070314,-117.208666,34.070314,-117.208666,1599,R,Redlands,San Bernardino,CA,92374-2015,55,7,5,0,Fair,0,FALSE,1,Night,-2.3025850929940455
A-3822690,2019-10-28T07:00:00Z,34.17213,-118.46776,34.17207,-118.46776,15362,L,Encino,Los Angeles,CA,91436,60,10,24,0,Fair / Windy,0,FALSE,0,Night,-2.2633643798407643
A-3873689,2019-09-06T15:57:00Z,34.135357,-118.000743,34.135357,-118.000743,1484,L,Monrovia,Los Angeles,CA,91016-4632,92,10,9,0,Fair,0,FALSE,0,Day,-2.3025850929940455
A-3793873,2019-10-06T08:50:00Z,35.109693,-118.135477,35.109693,-118.135477,19942,R,Mojave,Kern,CA,93501,66,10,6,0,Fair,0,FALSE,0,Day,-2.3025850929940455
A-3870909,2019-09-04T09:15:00Z,36.570148,-121.760883,36.570148,-121.760883,924,L,Salinas,Monterey,CA,93908-8821,62,10,7,0,Partly Cloudy,0,FALSE,0,Day,-2.3025850929940455
A-3778413,2019-12-14T15:41:00Z,34.483049,-117.712743,34.483049,-117.712743,32804,R,Llano,Los Angeles,CA,93544,53,10,23,0,Fair / Windy,0,FALSE,0,Day,-2.3025850929940455
A-3758000,2019-12-30T15:37:00Z,43.79989,-92.48989,43.79989,-92.48989,30649,L,Racine,Mower,MN,55967,24,0.5,23,0,Light Snow / Windy,0,FALSE,0,Day,-2.3025850929940455
A-3773640,2019-12-12T21:35:34Z,46.28883,-85.57004,46.21638,-85.57195,3499,L,Newberry,Luce,MI,49868,22,10,0,0,Cloudy,0,FALSE,0,Night,1.6306121476655067
A-3788453,2019-12-22T19:51:37Z,45.10299,-122.64681,45.10299,-122.64681,34859,L,Molalla,Clackamas,OR,97038-8520,43,8,5,0.03,Light Rain,0,FALSE,0,Night,-2.3025850929940455
A-3847461,2019-11-24T17:15:09Z,45.65539,-118.81069,45.65539,-118.81069,1043,L,Pendleton,Umatilla,OR,97801-3952,46,10,13,0,Cloudy,0,FALSE,0,Night,-2.3025850929940455
A-3970643,2018-11-23T05:45:28Z,45.062607,-123.492293,45.0626,-123.49229,22637,L,Willamina,Polk,OR,97396-9701,46,8,5.8,0.03,Light Rain,0,FALSE,0,Night,-2.2926347621408776
A-3902603,2019-02-03T21:40:35Z,44.04565,-122.912501,44.04565,-122.91247,6535,R,Springfield,Lane,OR,97478-7008,37.4,10,10.4,0.02,Light Rain,0,FALSE,0,Night,-2.2827824656978657
A-4179342,2019-05-03T11:29:23Z,42.302042,-122.849852,42.302257,-122.850077,2440,R,Medford,Jackson,OR,97501,63,10,5,0,Fair,0,FALSE,0,Day,-2.1286317858706076
A-4183032,2019-05-11T12:56:59Z,35.97391,-78.6871,35.965097,-78.68718,2688,R,Raleigh,Wake,NC,27614-9222,79,10,9,0,Mostly Cloudy,0,FALSE,0,Day,-0.3438997524500096
A-4230823,2019-08-05T08:59:22Z,43.992286,-122.99426,43.990904,-122.990912,34411,R,Eugene,Lane,OR,97405-9665,66,10,3,0,Partly Cloudy,0,FALSE,0,Day,-1.231001476713855
A-3750983,2019-12-24T18:05:00Z,46.85539,-92.66401,46.85539,-92.66401,9329,R,Brookston,St. Louis,MN,55711-8039,30,0.25,0,0,Fog,0,FALSE,0,Night,-2.3025850929940455
A-3776627,2019-12-13T19:53:00Z,37.802915,-122.267593,37.802915,-122.267593,1400,R,Oakland,Alameda,CA,94612-3946,58,8,8,0,Light Rain,1,FALSE,1,Night,-2.3025850929940455
A-4076925,2018-02-04T19:43:49Z,39.093005,-86.546039,39.080299,-86.537926,97,L,Bloomington,Monroe,IN,47403-9831,21.9,1,9.2,0.01,Light Snow,0,FALSE,0,Night,0.0769610411361284
A-4169186,2019-04-11T12:13:56Z,42.02343,-87.90902,42.03069,-87.90902,1640,L,Des Plaines,Cook,IL,60018,46,10,20,0,Mostly Cloudy,0,FALSE,1,Day,-0.507497833673316
A-4198132,2019-06-10T06:10:42Z,42.422366,-123.346113,42.422145,-123.347187,938,R,Grants Pass,Josephine,OR,97527-5589,61,10,3,0,Fair,0,FALSE,0,Day,-1.851509473633829
A-3818970,2019-10-25T06:37:00Z,35.889341,-120.046561,35.889341,-120.046561,40191,R,Avenal,Kings,CA,93204,47,10,0,0,Fair,0,FALSE,0,Night,-2.3025850929940455
A-3767992,2019-12-08T08:52:00Z,38.223776,-121.29082,38.223776,-121.29082,2098,R,Acampo,San Joaquin,CA,95220,57,8,7,0,Mostly Cloudy,0,FALSE,0,Day,-2.3025850929940455
A-4220743,2019-07-15T08:20:00Z,40.570518,-111.97726,40.564622,-111.97721,9879,L,South Jordan,Salt Lake,UT,84095,78,10,0,0,Fair,0,FALSE,0,Day,-0.6792442753909539
A-4175396,2019-04-23T22:53:00Z,41.266359,-111.97773,41.267516,-111.97769,385,L,Ogden,Weber,UT,84404-3919,53,10,3,0,Partly Cloudy,0,FALSE,0,Night,-1.7147984280919266
A-3826107,2019-10-30T19:15:00Z,36.623056,-121.580833,36.623056,-121.580833,389,R,Salinas,Monterey,CA,93908-9639,61,10,6,0,Fair,0,FALSE,0,Night,-2.3025850929940455
A-4184407,2019-05-15T00:11:44Z,34.346617,-84.582071,34.345264,-84.579425,9684,R,Waleska,Cherokee,GA,30183,54,10,0,0,Fair,0,FALSE,0,Night,-1.2801341652915
A-3884146,2019-09-15T23:45:00Z,39.227868,-121.414005,39.227868,-121.414005,5301,L,Browns Valley,Yuba,CA,95918-9618,67,10,18,0,Mostly Cloudy,0,FALSE,0,Night,-2.3025850929940455
A-3786673,2019-12-20T07:30:00Z,35.058638,-119.139087,35.058638,-119.139087,14813,R,Bakersfield,Kern,CA,93311-9400,43,10,6,0,Fair,0,FALSE,0,Day,-2.3025850929940455
A-4190869,2019-05-28T11:27:05Z,34.02355,-117.917982,34.02355,-117.917982,324,L,La Puente,Los Angeles,CA,91744-4601,68,10,6,0,Fair,0,FALSE,0,Day,-2.3025850929940455
A-4079052,2018-02-08T17:13:42Z,42.97206,-85.99381,42.97206,-85.99381,11201,R,Allendale,Ottawa,MI,49401-7500,21,6,10.4,0,Light Snow,0,FALSE,0,Day,-2.3025850929940455
A-4181679,2019-05-08T12:59:32Z,46.095915,-123.021436,46.095966,-123.022061,27020,L,Rainier,Columbia,OR,97048,63,10,5,0,Fair,0,FALSE,0,Day,-2.0402208285265546
A-4172605,2019-04-18T12:34:29Z,40.918432,-74.063417,40.917847,-74.061267,104,R,Paramus,Bergen,NJ,07652,52,8,8,0,Light Rain,0,FALSE,0,Day,-1.5186835491656363
A-4211820,2019-08-29T12:39:51Z,44.31273,-121.17153,44.312205,-121.171631,101,R,Redmond,Deschutes,OR,97756-9752,86,10,6,0,Fair,0,FALSE,0,Day,-1.987774353154012
A-4043572,2018-05-10T09:22:17Z,38.85364,-75.818481,38.849579,-75.813064,25603,L,Denton,Caroline,MD,21629-2448,68,10,14,0,Fair,0,FALSE,0,Day,-0.6831968497067772
A-3787076,2019-12-20T18:27:00Z,33.25602,-117.068353,33.25602,-117.068353,12198,R,Valley Center,San Diego,CA,92082-4719,51,10,3,0,Partly Cloudy,0,FALSE,0,Night,-2.3025850929940455
A-3850583,2019-10-02T09:03:35Z,45.38613,-122.39642,45.385142,-122.394656,25596,L,Boring,Clackamas,OR,97009-8162,50,10,20,0,Fair,0,FALSE,0,Day,-1.5654210270173259
A-4220012,2019-07-13T07:55:00Z,40.699692,-111.911731,40.69951,-111.913316,718,R,South Salt Lake,Salt Lake,UT,84119-3324,80,10,9,0.01,Light Rain,0,FALSE,0,Day,-1.6928195213731514
A-3851354,2019-10-02T16:51:00Z,35.412286,-119.074446,35.412286,-119.074446,6499,L,Bakersfield,Kern,CA,93308,77,10,12,0,Fair,0,FALSE,0,Day,-2.3025850929940455
A-3882973,2019-09-15T08:22:11Z,38.98736,-104.53492,38.973778,-104.553259,15684,L,Peyton,El Paso,CO,80831,69,10,0,0,Fair,0,FALSE,0,Day,0.3784364357202452
A-3847553,2019-11-25T08:34:37Z,43.83977,-120.69819,43.83977,-120.69819,34163,R,Brothers,Deschutes,OR,97712-9701,32,10,8,0,Partly Cloudy,0,FALSE,0,Day,-2.3025850929940455
A-4235106,2019-08-14T04:55:40Z,47.46314,-122.11135,47.46314,-122.11135,17188,L,Renton,King,WA,98058,62,7,3,0,Mostly Cloudy,1,FALSE,0,Night,-2.3025850929940455
A-3838339,2019-11-08T12:06:00Z,33.887394,-117.302057,33.887394,-117.302057,20193,L,Riverside,Riverside,CA,92508,86,10,7,0,Fair,0,FALSE,1,Day,-2.3025850929940455
A-3801291,2019-10-12T14:52:00Z,46.96241,-92.46287,46.97346,-92.46877,6272,L,Saginaw,St. Louis,MN,55779,34,3,9,0,Light Snow,0,FALSE,0,Day,-0.09101939838716867
A-3758760,2019-12-30T08:42:00Z,34.106643,-117.431787,34.106643,-117.431787,17082,R,Fontana,San Bernardino,CA,92335-3500,51,10,5,0,Cloudy,0,FALSE,0,Day,-2.3025850929940455
A-4213759,2019-08-30T19:15:00Z,37.425003,-122.31377,37.425003,-122.31377,14593,L,Redwood City,San Mateo,CA,94062,70,10,12,0,Fair,0,FALSE,0,Day,-2.3025850929940455
A-3790989,2019-10-04T10:30:55Z,30.34897,-95.44266,30.34742,-95.43515,900,L,Conroe,Montgomery,TX,77303-1800,84,10,5,0,Fair,0,FALSE,1,Day,-0.579818495252942
A-3903941,2019-02-05T12:56:11Z,47.817181,-116.829365,47.81719,-116.831817,3316,L,Rathdrum,Kootenai,ID,83858,23,9,10.4,0,Light Snow,0,FALSE,0,Day,-1.5417792639602854
A-4101504,2018-01-29T06:04:02Z,37.30585,-79.30821,37.30585,-79.30821,1000,R,Forest,Bedford County,VA,24551-4355,43,8,13.8,0,Light Rain,0,FALSE,1,Night,-2.3025850929940455
A-3831078,2019-11-03T19:37:00Z,36.165806,-120.869897,36.165806,-120.869897,52301,R,San Ardo,Monterey,CA,93450,55,10,12,0,Fair,0,FALSE,0,Night,-2.3025850929940455
A-3756776,2019-12-29T11:26:00Z,48.69187,-94.45998,48.69187,-94.45998,3150,L,Baudette,Lake of the Woods,MN,56623-2440,22,0.25,21,0.01,Fog / Windy,0,FALSE,0,Day,-2.3025850929940455
A-3780843,2019-12-16T19:27:00Z,33.945478,-118.291892,33.945478,-118.291892,900,R,Los Angeles,Los Angeles,CA,90044,59,10,0,0,Partly Cloudy,1,FALSE,1,Night,-2.3025850929940455
A-3849175,2019-10-01T11:16:00Z,40.69661,-111.988865,40.69661,-111.9895,4103,L,West Valley City,Salt Lake,UT,84120-3203,52,10,7,0,Fair,0,FALSE,0,Day,-2.017406150760383
A-4189997,2019-05-27T12:28:28Z,34.979686,-78.58697,34.97954,-78.586492,4351,L,Autryville,Sampson,NC,28318,93,10,10,0,Mostly Cloudy,0,FALSE,0,Day,-2.047942874620465
A-3941498,2018-12-07T10:59:00Z,41.966658,-112.784557,41.967258,-112.803015,32324,L,Snowville,Box Elder,UT,84336,21,4,0,0,Cloudy,0,FALSE,0,Day,0.04783732941416006
A-3770264,2019-12-09T15:22:00Z,33.380274,-117.253566,33.380274,-117.253566,296,L,Fallbrook,San Diego,CA,92028,64,10,7,0,Partly Cloudy,0,FALSE,0,Day,-2.3025850929940455
A-3846269,2019-11-19T04:21:14Z,43.29819,-122.93408,43.29819,-122.93408,30116,L,Idleyld Park,Douglas,OR,97447,50,10,0,0,Cloudy,0,FALSE,0,Night,-2.3025850929940455
A-3787572,2019-12-21T03:02:00Z,37.602092,-120.993522,37.602092,-120.993522,1898,L,Modesto,Stanislaus,CA,95358,44,7,0,0,Fair,0,FALSE,0,Night,-2.3025850929940455
A-4176931,2019-04-26T12:06:00Z,41.194407,-112.02583,41.192122,-112.02584,3796,R,Roy,Weber,UT,84067-3133,66,10,15,0,Mostly Cloudy,0,FALSE,0,Day,-1.3547956940605197
A-3772821,2019-12-11T14:25:00Z,39.366653,-123.316012,39.366653,-123.316012,18499,L,Willits,Mendocino,CA,95490-8733,54,10,0,0,Cloudy,0,FALSE,0,Day,-2.3025850929940455
A-3895354,2019-03-24T15:41:16Z,45.083334,-123.959477,45.080048,-123.9501,50924,L,Neskowin,Tillamook,OR,97149,61,10,6,0,Fair,0,FALSE,0,Day,-0.49265831981054176
A-3884254,2019-09-16T08:01:00Z,37.972276,-121.085637,37.972276,-121.085637,18798,R,Linden,San Joaquin,CA,95236-9732,65,3,0,0,Light Rain,0,FALSE,0,Day,-2.3025850929940455
A-3752730,2019-12-25T23:06:35Z,45.90419,-119.30208,45.90419,-119.30208,81825,R,Hermiston,Umatilla,OR,97838,32,3,6,0,Cloudy,0,FALSE,0,Night,-2.3025850929940455
A-4165174,2019-04-05T00:43:11Z,25.85409,-80.32133,25.85134,-80.32291,3598,L,Hialeah,Miami-Dade,FL,33012,74,10,7,0,Mostly Cloudy,0,FALSE,0,Night,-1.1583622930738837
A-4218381,2019-07-10T07:57:23Z,25.69392,-80.30204,25.69471,-80.30107,8341,L,Miami,Miami-Dade,FL,33143-7713,83,10,3,0,Mostly Cloudy,1,FALSE,0,Day,-1.7092582477163114
A-3838756,2019-11-08T19:13:00Z,33.627207,-117.093513,33.627207,-117.093513,32365,R,Winchester,Riverside,CA,92596-9440,73,10,5,0,Fair,0,FALSE,0,Night,-2.3025850929940455
A-4205766,2019-06-27T06:54:20Z,47.73397,-122.31277,47.73397,-122.31277,14499,L,Seattle,King,WA,98125,58,10,7,0,Cloudy,1,FALSE,1,Day,-2.3025850929940455
A-3885007,2019-09-16T19:40:00Z,33.896158,-118.193472,33.896158,-118.193472,15101,R,Compton,Los Angeles,CA,90221-3683,72,10,7,0,Fair,0,FALSE,1,Night,-2.3025850929940455
A-3766743,2019-12-07T14:42:19Z,45.49062,-121.09961,45.49062,-121.09961,69978,R,Dufur,Wasco,OR,97021,42,9,0,0,Cloudy,0,FALSE,0,Day,-2.3025850929940455
A-4233417,2019-08-11T23:05:25Z,38.73258,-75.135132,38.730589,-75.132483,18846,L,Rehoboth Beach,Sussex,DE,19971-6151,69,10,0,0,Fair,0,FALSE,0,Night,-1.2106617924767324
A-3767948,2019-12-08T06:23:00Z,39.783928,-120.552069,39.783928,-120.552069,71326,R,Blairsden Graeagle,Plumas,CA,96103,34,1,6,0.01,Fog,0,FALSE,0,Night,-2.3025850929940455
A-3784537,2019-12-19T10:32:00Z,39.938197,-120.950162,39.938197,-120.950162,102,R,Quincy,Plumas,CA,95971-9118,52,10,8,0,Cloudy,0,FALSE,0,Day,-2.3025850929940455
A-3791139,2019-10-04T00:19:12Z,46.084488,-123.71062,46.083028,-123.709395,87996,L,Astoria,Clatsop,OR,97103-8192,47,10,5,0,Cloudy,0,FALSE,0,Night,-1.5278579254416773
A-3811276,2019-10-20T10:09:00Z,44.13687,-92.41699,44.13197,-92.41741,9451,R,Rochester,Olmsted,MN,55906,51,10,5,0,Fair,0,FALSE,0,Day,-0.8232558659069655
A-4210326,2019-08-27T23:45:18Z,33.870091,-113.930842,33.879933,-113.944528,46906,L,Bouse,La Paz,AZ,85325,95,10,5,0,Fair,0,FALSE,0,Night,0.1301506844650451
A-3840718,2019-11-11T15:14:03Z,43.47971,-83.90627,43.52252,-83.88266,2993,R,Saginaw,Saginaw,MI,48601,27,1,16,0,Light Snow,0,FALSE,0,Day,1.1896710196150764
A-3810189,2019-10-19T16:44:00Z,44.57252,-93.58401,44.57208,-93.58406,2698,L,New Prague,Scott,MN,56071-8805,66,10,9,0,Fair,0,FALSE,0,Day,-2.0325579557809856
A-3840873,2019-11-11T19:45:34Z,27.09667,-82.15552,27.0938,-82.15554,4933,L,North Port,Sarasota,FL,34289,70,10,6,0,Fair,0,FALSE,0,Night,-1.2106617924767324
A-3796934,2019-10-09T19:40:37Z,38.99918,-76.55566,38.99918,-76.55566,1900,R,Annapolis,Anne Arundel,MD,21401-6719,60,10,8,0,Cloudy,0,FALSE,0,Night,-2.3025850929940455
A-3785620,2019-12-21T00:55:46Z,40.55015,-74.32183,40.55148,-74.31948,193,L,Metuchen,Middlesex,NJ,08840-2964,24,10,0,0,Fair,0,FALSE,1,Night,-1.3704210119636004
A-4196341,2019-06-06T18:14:33Z,41.8927,-87.65059,41.89465,-87.65591,600,L,Chicago,Cook,IL,60642,74,10,10,0,Mostly Cloudy,0,FALSE,0,Day,-0.9038682118755978
A-4175603,2019-04-23T16:09:28Z,34.140942,-117.2524,34.14127,-117.2524,2726,R,San Bernardino,San Bernardino,CA,92404-4439,93,7,21,0,Fair / Windy,0,FALSE,0,Day,-2.0955709236097197
A-4172289,2019-04-17T16:05:35Z,39.780833,-105.789848,39.773139,-105.807942,3745,R,Empire,Clear Creek,CO,80438,43,10,14,0,Cloudy,0,FALSE,0,Day,0.18065349969325775
A-3810717,2019-10-19T20:38:00Z,38.481647,-121.385304,38.481647,-121.385304,8644,R,Sacramento,Sacramento,CA,95828-4707,62,10,5,0,Fair,0,FALSE,0,Night,-2.3025850929940455
A-4174516,2019-04-22T20:12:33Z,39.44976,-76.41774,39.44976,-76.41774,11900,L,Kingsville,Baltimore,MD,21087-1154,70,10,8,0,Fair,0,FALSE,1,Night,-2.3025850929940455
A-4204819,2019-06-26T22:17:36Z,43.07623,-76.17288,43.100868,-76.202346,2228,R,Syracuse,Onondaga,NY,13208-1036,73,10,7,0,Partly Cloudy,0,FALSE,0,Night,0.8586616190375187
A-3929215,2019-01-19T13:59:34Z,42.255981,-123.620191,42.233394,-123.641384,19692,R,Selma,Josephine,OR,97538-3619,44.1,0.2,5.8,0.2,Light Rain,0,FALSE,0,Day,0.6931471805599453
A-4238479,2019-08-22T17:50:16Z,43.674708,-83.955699,43.677252,-83.957373,2330,R,Kawkawlin,Bay,MI,48631-9438,71,10,7,0,Cloudy,0,FALSE,0,Day,-1.220779922642317
A-4214276,2019-08-30T16:27:00Z,36.735007,-119.969942,36.735007,-119.969942,1,L,Fresno,Fresno,CA,93723-9639,95,10,9,0,Fair,0,FALSE,0,Day,-2.3025850929940455
A-3782517,2019-12-18T18:00:00Z,48.3476,-92.96316,48.3476,-92.96316,8555,R,Orr,St. Louis,MN,55771-8038,7,10,14,0,Cloudy,0,FALSE,0,Night,-2.3025850929940455
A-3846774,2019-11-21T14:29:46Z,39.60208,-105.99068,39.60208,-105.99068,21267,L,Dillon,Summit,CO,80435,26,8,7,0,Partly Cloudy,0,FALSE,0,Day,-2.3025850929940455
A-3835628,2019-11-06T17:39:00Z,33.16178,-117.205085,33.16178,-117.205085,100,L,San Marcos,San Diego,CA,92069-5908,62,10,0,0,Fair,0,FALSE,0,Night,-2.3025850929940455
A-4189462,2019-05-24T15:54:52Z,37.48987,-122.21635,37.48707,-122.21422,1498,L,Redwood City,San Mateo,CA,94063-2607,70,10,9,0,Fair,0,FALSE,0,Day,-1.1208578976154293
A-4209020,2019-08-27T09:22:49Z,45.235034,-123.158862,45.23304,-123.15861,2699,L,McMinnville,Yamhill,OR,97128,77,10,12,0,Fair,0,FALSE,0,Day,-1.4354846053106622
A-3876761,2019-09-09T23:28:32Z,43.80673,-122.569999,43.806685,-122.569677,44971,R,Westfir,Lane,OR,97492,59,10,3,0,Cloudy,0,FALSE,0,Night,-2.1541650878757723
A-3834805,2019-11-06T08:58:50Z,47.72298,-122.29084,47.72648,-122.291,12906,R,Seattle,King,WA,98125-4510,48,7,0,0,Cloudy,1,FALSE,0,Day,-1.072944541919532
A-3770514,2019-12-09T21:00:00Z,34.070465,-117.396026,34.070465,-117.396026,10103,R,Bloomington,San Bernardino,CA,92316,53,10,0,0,Fair,0,FALSE,1,Night,-2.3025850929940455
A-3952082,2018-12-22T11:28:39Z,45.284369,-121.724936,45.284218,-121.724585,92110,L,Government Camp,Clackamas,OR,97028,43,10,20,0,Cloudy,0,FALSE,0,Day,-2.120263536200091
A-3938146,2018-12-04T23:17:17Z,39.517222,-84.098609,39.49248,-84.1318,5535,L,Waynesville,Warren,OH,45068-9543,32,9,4.6,0,Overcast,0,FALSE,0,Night,0.9400072584914712
A-4207514,2019-06-01T12:55:48Z,42.11926,-73.98892,42.116757,-73.978534,3296,L,Saugerties,Ulster,NY,12477-4275,77,10,8,0,Partly Cloudy,0,FALSE,0,Day,-0.4155154439616658
A-3788445,2019-12-22T18:32:08Z,45.45427,-122.57916,45.45427,-122.57916,9497,R,Happy Valley,Clackamas,OR,97086-3725,44,7,6,0.01,Light Rain,1,FALSE,1,Night,-2.3025850929940455
A-3788970,2019-12-22T05:39:00Z,36.696667,-121.804592,36.696667,-121.804592,72,R,Marina,Monterey,CA,93933,56,4,9,0.2,Heavy Rain,0,FALSE,0,Night,-2.3025850929940455
A-3799677,2019-10-10T21:51:00Z,36.95934,-121.55109,36.95943,-121.55108,4290,R,Gilroy,Santa Clara,CA,95020-9510,59,10,0,0,Cloudy,0,FALSE,0,Night,-2.24431618487007
A-3825126,2019-10-30T08:53:22Z,47.78615,-122.14327,47.7855,-122.14336,23221,R,Woodinville,Snohomish,WA,98072-9723,36,10,3,0,Fair,0,FALSE,0,Day,-1.9310215365615626
A-4205303,2019-06-26T14:31:01Z,44.463662,-118.698162,44.463271,-118.694792,67863,L,Prairie City,Grant,OR,97869,67,10,13,0.1,Thunder,0,FALSE,0,Day,-1.3167682984712803
A-3849258,2019-10-01T05:58:04Z,43.448025,-119.016422,43.445402,-119.003544,65254,L,Burns,Harney,OR,97720-9395,31,10,9,0,Fair,0,FALSE,0,Night,-0.26006690541880756
A-3826517,2019-10-31T18:59:00Z,48.01629,-92.83052,48.00741,-92.83067,4020,L,Orr,St. Louis,MN,55771,27,10,0,0,Partly Cloudy,0,FALSE,0,Night,-0.33687231664255274
A-4175996,2019-04-24T19:12:18Z,39.70417,-104.99336,39.716592,-105.002642,953,L,Denver,Denver,CO,80223-3204,68,10,6,0,Mostly Cloudy,0,FALSE,0,Day,0.08617769624105241
A-4180491,2019-05-06T12:07:00Z,45.367635,-122.330178,45.367674,-122.330126,32251,R,Eagle Creek,Clackamas,OR,97022-9762,70,10,5,0,Fair,0,FALSE,0,Day,-2.2633643798407643
A-3830507,2019-11-03T17:07:06Z,45.52741,-117.47706,45.50094,-117.45066,81612,R,Wallowa,Wallowa,OR,97885,46,10,0,0,Fair,0,FALSE,0,Night,0.8462973600536201
A-4173939,2019-04-20T11:13:00Z,40.572179,-112.295103,40.573893,-112.294836,2384,R,Tooele,Tooele,UT,84074,65,10,6,0,Cloudy,0,FALSE,0,Day,-1.5186835491656363
A-3770784,2019-12-10T09:53:00Z,47.55619,-92.54734,47.55619,-92.54734,6469,L,Virginia,St. Louis,MN,55792-8015,-4,7,9,0,Partly Cloudy,0,FALSE,0,Day,-2.3025850929940455
A-3860730,2019-09-25T08:48:19Z,43.967045,-117.00574,43.9525,-117.00588,501,L,Ontario,Malheur,OR,97914-8815,59,10,12,0,Fair,0,FALSE,0,Day,0.09984533496971612
A-3847287,2019-11-23T08:36:08Z,42.96976,-123.86804,42.96976,-123.86804,24135,L,Myrtle Point,Coos,OR,97458-9870,42,10,5,0,Partly Cloudy,0,FALSE,0,Day,-2.3025850929940455
A-3916488,2019-02-25T06:53:45Z,43.908028,-122.781922,43.90793,-122.782764,39819,R,Lowell,Lane,OR,97452-9709,33.1,0.5,10.4,0.13,Snow,0,FALSE,0,Night,-1.9519282213808762
A-3934915,2019-01-30T13:49:32Z,42.77037,-78.38873,42.769688,-78.444263,2252,L,Strykersville,Wyoming,NY,14145-9534,-0.4,0.1,18.4,0.01,Heavy Snow,0,FALSE,0,Day,1.0705556908855844
A-4191335,2019-05-29T13:20:16Z,44.679091,-121.146281,44.673247,-121.142075,679,R,Madras,Jefferson,OR,97741-9497,73,10,12,0,Partly Cloudy,0,FALSE,0,Day,-0.5905905922348531
A-4210410,2019-08-28T13:32:39Z,43.207152,-124.24234,43.203787,-124.239832,97265,L,Coquille,Coos,OR,97423,68,10,13,0,Fair,0,FALSE,0,Day,-1.0078579253996456
A-3999109,2018-09-15T09:22:22Z,45.665878,-123.926408,45.663773,-123.927769,28562,L,Rockaway Beach,Tillamook,OR,97136-9206,55,5,0,0,Light Drizzle,0,FALSE,0,Day,-1.3470736479666092
A-3787597,2019-12-21T08:28:00Z,38.115492,-121.327144,38.115492,-121.327144,15001,L,Lodi,San Joaquin,CA,95242,48,5,5,0,Fair,0,FALSE,0,Day,-2.3025850929940455
A-4165180,2019-04-05T00:49:11Z,33.83942,-84.37987,33.840391,-84.377197,3075,L,Atlanta,Fulton,GA,30305-2221,53,5,3,0.03,Light Rain,1,FALSE,1,Night,-1.3205066205818874
A-3752030,2019-12-25T11:35:00Z,38.675994,-122.591979,38.675994,-122.591979,26190,R,Middletown,Lake,CA,95461,49,10,7,0,Cloudy,0,FALSE,0,Day,-2.3025850929940455
A-3818010,2019-10-24T20:23:00Z,33.896402,-118.32651,33.896402,-118.32651,14864,R,Gardena,Los Angeles,CA,90249-3606,78,10,0,0,Fair,0,FALSE,0,Night,-2.3025850929940455
A-3807792,2019-10-17T16:00:00Z,37.185791,-120.488184,37.185791,-120.488184,7300,R,El Nido,Merced,CA,95317-9757,73,10,18,0,Fair,0,FALSE,0,Day,-2.3025850929940455
A-3837978,2019-11-08T17:38:00Z,38.707346,-122.04847,38.707346,-122.04847,15999,R,Esparto,Yolo,CA,95627,64,10,0,0,Fair,0,FALSE,0,Night,-2.3025850929940455
A-3868679,2019-09-03T08:50:41Z,38.9093,-94.39076,38.91289,-94.39569,873,L,Lees Summit,Jackson,MO,64063,77,10,10,0,Fair,0,FALSE,0,Day,-0.7700282248959031
A-3777633,2019-12-14T20:11:40Z,39.31624,-106.05716,39.31624,-106.05716,4000,R,Fairplay,Park,CO,80440,19,2,3,0,Light Snow,0,FALSE,0,Night,-2.3025850929940455
A-4201643,2019-06-18T15:12:42Z,32.65457,-96.75048,32.655306,-96.750438,4105,R,Dallas,Dallas,TX,75241,90,10,6,0,Fair,0,FALSE,1,Day,-1.8904754421672127
A-4174115,2019-04-21T12:17:47Z,40.742999,-78.533533,40.742289,-78.533635,233,L,Coalport,Clearfield,PA,16627,51,10,6,0,Light Rain,0,FALSE,0,Day,-1.9038089730366778
A-3867477,2019-09-01T11:14:00Z,35.27589,-119.003132,35.27589,-119.003132,2,R,Bakersfield,Kern,CA,93307-6002,88,10,0,0,Fair,0,FALSE,0,Day,-2.3025850929940455
A-4183359,2019-05-12T13:08:45Z,27.82846,-82.64689,27.82846,-82.64689,6198,L,Saint Petersburg,Pinellas,FL,33703-1142,84,10,13,0,Fair,0,FALSE,1,Day,-2.3025850929940455
A-3783529,2019-12-18T17:20:00Z,36.80449,-121.667784,36.80449,-121.667784,2295,L,Salinas,Monterey,CA,93907-8824,57,10,6,0,Cloudy,0,FALSE,0,Night,-2.3025850929940455
A-3851714,2019-09-17T19:32:58Z,33.295637,-91.636979,33.293907,-91.621266,5606,L,Montrose,Ashley,AR,71658,82,10,0,0,Fair,0,FALSE,0,Night,0.014888612493750777
A-3825080,2019-10-30T13:32:19Z,33.21927,-112.03824,33.21952,-112.069,9666,L,Laveen,Maricopa,AZ,85339,65,10,9,0,Partly Cloudy,0,FALSE,0,Day,0.6302073807860712
A-4180661,2019-05-07T16:14:02Z,42.70762,-84.22142,42.691189,-84.220171,4240,R,Williamston,Ingham,MI,48895-9547,48,10,7,0,Cloudy,0,FALSE,0,Day,0.21268909341035092
A-4233309,2019-08-10T16:56:49Z,45.18442,-123.918533,45.184413,-123.917282,36201,R,Cloverdale,Tillamook,OR,97112-9798,68,10,13,0,Cloudy,0,FALSE,0,Day,-1.8263509139976741
A-3788024,2019-12-21T14:30:00Z,34.070261,-117.204996,34.070261,-117.204996,1459,R,Redlands,San Bernardino,CA,92374-2014,70,10,0,0,Cloudy,0,FALSE,0,Day,-2.3025850929940455
A-4183470,2019-05-12T16:39:42Z,39.083943,-108.459177,39.085439,-108.457961,547,L,Clifton,Mesa,CO,81520-7876,75,10,5,0,Fair,0,FALSE,0,Day,-1.5050778971098575
A-4169839,2019-04-12T16:24:33Z,36.700228,-76.870929,36.707242,-76.862126,3231,L,Franklin,Isle of Wight,VA,23851-4013,76,10,20,0,Fair,0,FALSE,0,Day,-0.2395270305647338
A-4237945,2019-08-21T13:53:01Z,39.594389,-86.376382,39.595329,-86.376228,11379,R,Mooresville,Morgan,IN,46158-6368,80,10,6,0,Partly Cloudy,0,FALSE,0,Day,-1.8018098050815563
A-3783935,2019-12-19T12:31:00Z,45.30659,-93.82,45.30659,-93.82,3297,L,Monticello,Wright,MN,55362-3280,21,10,0,0,Fair,0,FALSE,0,Day,-2.3025850929940455
A-3839387,2019-11-09T17:58:00Z,37.6646,-121.32447,37.6646,-121.32447,31698,L,Tracy,San Joaquin,CA,95304-9551,65,8,5,0,Fair,0,FALSE,0,Night,-2.3025850929940455
A-4171307,2019-04-15T21:11:42Z,43.17306,-124.201278,43.121387,-124.378568,96966,L,Coquille,Coos,OR,97423,50,10,7,0.01,Cloudy,0,FALSE,0,Night,2.274597056453877
A-3856399,2019-09-21T18:57:00Z,37.594807,-120.743646,37.594807,-120.743646,13398,R,Hickman,Stanislaus,CA,95323-9610,82,10,6,0,Fair,0,FALSE,0,Day,-2.3025850929940455
A-3831276,2019-11-04T10:10:35Z,41.72183,-87.585,41.72234,-87.58501,9517,L,Chicago,Cook,IL,60617,50,10,9,0,Mostly Cloudy,0,FALSE,0,Day,-2.0024805005437076
A-4206461,2019-06-29T17:34:06Z,35.4158,-88.36764,35.4158,-88.36764,5394,L,Enville,Chester,TN,38332-1998,89,10,3,0,Fair,0,FALSE,0,Day,-2.3025850929940455
A-4164811,2019-04-03T04:35:42Z,45.410026,-122.303667,45.409999,-122.303618,34804,L,Boring,Clackamas,OR,97009,55,10,7,0,Cloudy,0,FALSE,0,Night,-2.2730262907525014
A-4196887,2019-06-07T12:02:19Z,42.00445,-88.18708,42.00445,-88.18708,574,R,Bartlett,Cook,IL,60103,80,10,13,0,Fair,0,FALSE,1,Day,-2.3025850929940455
A-3757349,2019-12-29T10:30:00Z,34.088594,-118.475404,34.088594,-118.475404,1297,R,Los Angeles,Los Angeles,CA,90049-1667,57,10,3,0,Mostly Cloudy,0,FALSE,0,Day,-2.3025850929940455
A-4211836,2019-08-29T14:41:00Z,44.053799,-123.533212,44.051062,-123.535301,20277,L,Noti,Lane,OR,97461,83,10,13,0,Partly Cloudy,0,FALSE,0,Day,-1.152013065395225
A-4220403,2019-07-14T16:40:36Z,45.094828,-123.06693,45.082433,-123.067229,18000,L,Salem,Yamhill,OR,97304-9649,85,10,7,0,Partly Cloudy,0,FALSE,0,Day,-0.04395188752918283
A-3765819,2019-12-06T20:07:00Z,37.674748,-120.365574,37.674748,-120.365574,2986,R,La Grange,Mariposa,CA,95329-9786,55,10,10,0,Fair,0,FALSE,0,Night,-2.3025850929940455
A-4189153,2019-05-24T15:50:17Z,35.961746,-78.84474,35.958606,-78.842867,1122,R,Durham,Durham,NC,27703-5414,92,10,10,0,Partly Cloudy,0,FALSE,0,Day,-1.0758728016986203
A-3779405,2019-12-15T15:31:00Z,34.068639,-117.974155,34.068639,-117.974155,13848,R,Baldwin Park,Los Angeles,CA,91706-5902,64,10,6,0,Fair,0,FALSE,0,Day,-2.3025850929940455
A-3752959,2019-12-26T15:01:00Z,38.459547,-121.380981,38.459547,-121.380981,8100,L,Sacramento,Sacramento,CA,95828-7500,57,10,16,0,Fair,0,FALSE,0,Day,-2.3025850929940455
A-4164570,2019-04-03T17:14:21Z,39.954678,-75.059593,39.954684,-75.059585,4998,R,Pennsauken,Camden,NJ,08109-2130,68,10,26,0,Fair / Windy,0,FALSE,0,Day,-2.2926347621408776
A-3828092,2019-11-01T15:57:49Z,39.66849,-105.25655,39.66886,-105.26171,22869,R,Golden,Jefferson,CO,80401,36,20,6,0,Mostly Cloudy,0,FALSE,0,Day,-0.9781661355922425
A-3804696,2019-10-15T08:52:22Z,42.14015,-121.88498,42.13656,-121.89698,11096,R,Klamath Falls,Klamath,OR,97601-9257,42,10,0,0,Fair,0,FALSE,0,Day,-0.27049724769768
A-3782876,2019-12-18T09:08:00Z,37.826529,-121.185639,37.826529,-121.185639,9200,R,Manteca,San Joaquin,CA,95336-8218,49,6,10,0.01,Light Rain,0,FALSE,0,Day,-2.3025850929940455
A-3867959,2019-09-02T14:15:25Z,44.759056,-122.356723,44.757362,-122.33693,34915,L,Gates,Marion,OR,97346-9515,78,10,6,0,Fair,0,FALSE,0,Day,0.07510747248680548
A-3843312,2019-11-13T18:48:38Z,42.82394,-86.07811,42.82394,-86.07811,3213,L,Holland,Ottawa,MI,49424-9655,23,10,14,0,Mostly Cloudy,0,FALSE,0,Night,-2.3025850929940455
A-4184082,2019-05-13T21:34:29Z,44.41774,-119.131025,44.417718,-119.135416,59158,R,Mount Vernon,Grant,OR,97865,64,10,0,0,Fair,0,FALSE,0,Night,-1.1488535051048565
A-3811462,2019-10-20T21:27:33Z,45.15462,-123.10926,45.14289,-123.1151,14298,L,Dayton,Yamhill,OR,97114-8417,52,10,6,0,Cloudy,0,FALSE,0,Night,-0.04186420409869887
A-3749502,2019-12-23T18:05:00Z,37.867475,-121.638375,37.867475,-121.638375,15001,L,Byron,Contra Costa,CA,94514-1509,48,10,6,0,Fair,0,FALSE,0,Night,-2.3025850929940455
A-3763524,2019-12-04T18:54:00Z,33.998708,-118.176255,33.998708,-118.176255,4763,L,Vernon,Los Angeles,CA,90058-5410,60,10,0,0,Fair,0,FALSE,0,Night,-2.3025850929940455
A-4211546,2019-08-29T11:58:15Z,32.675316,-84.859163,32.673213,-84.85904,13,L,Cataula,Harris,GA,31804,86,10,6,0,Fair,0,FALSE,0,Day,-1.40649706843741
A-4187612,2019-05-21T18:59:12Z,30.274666,-93.90534,30.267633,-93.903354,113,L,Buna,Jasper,TX,77612-3351,83,7,9,0,Cloudy,0,FALSE,0,Day,-0.5108256237659907
A-4197664,2019-06-09T00:32:34Z,45.585,-122.77123,45.586309,-122.772539,8769,R,Portland,Multnomah,OR,97231-1142,54,10,3,0,Fair,0,FALSE,0,Night,-1.5606477482646683
A-3803502,2019-10-14T12:38:34Z,45.27429,-122.94424,45.27378,-122.94417,8355,L,Newberg,Yamhill,OR,97132-7132,60,10,7,0,Fair,0,FALSE,0,Day,-2.0024805005437076
A-3824980,2019-10-30T18:22:37Z,31.31705,-89.3266,31.32029,-89.32862,6000,R,Hattiesburg,Forrest,MS,39401-7366,77,10,3,0,Mostly Cloudy,0,FALSE,0,Night,-1.0384583658483626
A-3952950,2018-12-24T17:57:43Z,45.304904,-121.787398,45.303007,-121.778194,86880,L,Government Camp,Clackamas,OR,97028,43,10,14,0,Mostly Cloudy,0,FALSE,0,Night,-0.569161200778954
A-3883045,2019-09-15T09:52:21Z,45.53079,-122.66533,45.530119,-122.66533,74,R,Portland,Multnomah,OR,97227,61,6,7,0.08,Light Rain,1,FALSE,0,Day,-1.9241486572738005
A-3835180,2019-11-05T22:03:00Z,34.471874,-118.179892,34.471874,-118.179892,2784,R,Acton,Los Angeles,CA,93510-2422,52,10,6,0,Fair,0,FALSE,0,Night,-2.3025850929940455
A-3793655,2019-10-06T16:23:00Z,37.968815,-121.668458,37.968815,-121.668458,1534,L,Oakley,Contra Costa,CA,94561,86,10,7,0,Partly Cloudy,0,FALSE,0,Day,-2.3025850929940455
A-4172773,2019-04-18T07:07:53Z,41.81277,-87.63072,41.81097,-87.6312,4503,L,Chicago,Cook,IL,60609,56,7,8,0.01,Cloudy,0,TRUE,0,Day,-1.4828052615007343
A-3928934,2019-01-19T19:22:29Z,39.925866,-86.127028,39.930538,-86.145888,9543,R,Indianapolis,Marion,IN,46240,25,1,23,0,Mist,0,FALSE,0,Night,0.13976194237515882
A-3780172,2019-12-16T09:01:00Z,39.1725,-121.05417,39.17429,-121.054,13421,R,Grass Valley,Nevada,CA,95949-9254,43,10,0,0,Fair,0,FALSE,0,Day,-1.4961092271270973
A-3819251,2019-10-25T14:48:00Z,34.04418,-118.173616,34.04418,-118.173616,4262,R,Los Angeles,Los Angeles,CA,90063-3319,92,10,6,0,Fair,0,FALSE,1,Day,-2.3025850929940455
A-3804437,2019-10-15T05:35:00Z,43.84846,-93.03753,43.84655,-93.03633,10415,R,Blooming Prairie,Mower,MN,55917-6935,45,10,6,0,Fair,0,FALSE,0,Night,-1.40649706843741
A-3780115,2019-12-16T08:00:00Z,38.477229,-122.436292,38.477229,-122.436292,1563,R,Saint Helena,Napa,CA,94574-9775,35,10,3,0,Patches of Fog,1,FALSE,0,Day,-2.3025850929940455
A-3821947,2019-10-28T07:26:00Z,45.32243,-94.96033,45.32161,-94.9572,20570,R,New London,Kandiyohi,MN,56273-9430,29,10,6,0,Cloudy,0,FALSE,0,Night,-1.3394107752210402
A-4220007,2019-07-13T03:53:00Z,40.695988,-112.06309,40.6965,-112.06309,3522,R,Magna,Salt Lake,UT,84044-2443,79,10,3,0,Mostly Cloudy,0,FALSE,0,Night,-2.0024805005437076
A-3828794,2019-11-01T09:55:00Z,33.742883,-117.281007,33.742883,-117.281007,25898,R,Perris,Riverside,CA,92570-8772,65,10,0,0,Fair,0,FALSE,0,Day,-2.3025850929940455
A-3825459,2019-10-30T18:08:00Z,38.495972,-121.426721,38.495972,-121.426721,6544,R,Sacramento,Sacramento,CA,95828-2851,62,9,0,0,Partly Cloudy,0,FALSE,0,Night,-2.3025850929940455
A-3845284,2019-11-15T15:30:03Z,42.46378,-82.99165,42.46378,-82.99165,12999,L,Warren,Macomb,MI,48089-2638,36,10,6,0,Cloudy,1,FALSE,1,Day,-2.3025850929940455
A-3816996,2019-10-24T17:39:00Z,41.19815,-112.02582,41.19845,-112.02581,1896,L,Ogden,Weber,UT,84401,47,10,5,0,Fair,1,FALSE,1,Day,-2.111964733385396
A-3874746,2019-09-08T05:30:38Z,40.855077,-73.194323,40.855237,-73.193513,1,L,Smithtown,Suffolk,NY,11787-2703,57,10,5,0,Partly Cloudy,0,FALSE,0,Night,-1.9379419794061363
A-3860708,2019-09-25T16:12:00Z,40.761874,-111.93907,40.761278,-111.939059,350,R,Salt Lake City,Salt Lake,UT,84104-3536,76,10,10,0,Partly Cloudy,0,FALSE,0,Day,-1.9589953886039686
A-3792060,2019-10-04T16:40:00Z,33.7791,-117.888768,33.7791,-117.888768,605,L,Orange,Orange,CA,92868-4930,75,10,7,0,Fair,0,FALSE,0,Day,-2.3025850929940455
A-4207653,2019-06-01T13:51:00Z,37.12555,-113.205122,37.12554,-113.20508,5688,L,Hurricane,Washington,UT,84737,86,10,5,0,Mostly Cloudy,0,FALSE,0,Day,-2.2827824656978657
A-4226225,2019-07-26T08:51:13Z,43.612944,-119.025061,43.611199,-119.027978,31134,R,Burns,Harney,OR,97720-2702,74,10,0,0,Mostly Cloudy,0,FALSE,0,Day,-1.2413285908697047
A-4177911,2019-04-01T15:09:11Z,43.06837,-77.62749,43.06837,-77.62748,2199,R,Rochester,Monroe,NY,14623-4221,37,10,10,0,Fair,0,FALSE,1,Day,-2.2926347621408776
A-3875970,2019-09-09T16:14:00Z,38.095115,-120.471731,38.095115,-120.471731,2962,L,Vallecito,Calaveras,CA,95251,79,10,8,0,Fair,0,FALSE,0,Day,-2.3025850929940455
A-4200725,2019-06-16T17:53:11Z,36.823865,-76.745501,36.816776,-76.748667,23198,L,Windsor,Isle of Wight,VA,23487-5331,87,10,8,0,Fair,0,FALSE,0,Day,-0.4780358009429998
A-3848174,2019-09-30T07:11:00Z,37.638724,-120.833927,37.638724,-120.833927,8736,R,Modesto,Stanislaus,CA,95357-1861,53,10,0,0,Cloudy,0,FALSE,0,Day,-2.3025850929940455
A-3787512,2019-12-21T18:29:12Z,43.81871,-123.04612,43.81871,-123.04612,79454,L,Cottage Grove,Lane,OR,97424-9571,46,9,0,0.02,Light Rain,0,FALSE,0,Night,-2.3025850929940455
A-3782280,2019-12-18T22:08:40Z,44.4155,-71.59277,44.4155,-71.59277,648,R,Whitefield,Coos,NH,03598-3061,14,9,9,0,Cloudy,0,FALSE,0,Night,-2.3025850929940455
A-3753859,2019-12-26T13:54:00Z,34.038172,-118.284743,34.038172,-118.284743,1305,R,Los Angeles,Los Angeles,CA,90007-1202,55,10,0,0,Mostly Cloudy,0,FALSE,0,Day,-2.3025850929940455
A-3844025,2019-11-13T06:55:00Z,37.108515,-121.7322,37.108515,-121.7322,17701,L,Morgan Hill,Santa Clara,CA,95037-9420,46,3,0,0,Partly Cloudy,0,FALSE,0,Day,-2.3025850929940455
A-3807774,2019-10-17T15:37:00Z,38.698994,-120.995567,38.698994,-120.995567,2601,R,Cameron Park,El Dorado,CA,95682-8833,61,10,5,0,Fair,0,FALSE,0,Day,-2.3025850929940455
A-3948363,2018-12-16T02:15:15Z,45.49124,-122.79144,45.49399,-122.79155,11077,R,Beaverton,Washington,OR,97005-1848,42.1,6,5.8,0.04,Light Rain,1,FALSE,1,Night,-1.2378743560016172
A-3832190,2019-11-04T09:31:00Z,33.872778,-118.341992,33.872778,-118.341992,3892,L,Torrance,Los Angeles,CA,90504-3209,72,7,3,0,Fair,0,FALSE,0,Day,-2.3025850929940455
A-4238790,2019-08-22T05:37:22Z,45.036706,-122.964554,45.034885,-122.966204,8099,L,Salem,Marion,OR,97305-9638,56,10,5,0,Cloudy,0,FALSE,0,Night,-1.3903023825174294
A-3880895,2019-09-13T14:44:41Z,45.49323,-122.67374,45.493072,-122.67377,4191,R,Portland,Multnomah,OR,97239,75,10,5,0,Mostly Cloudy,0,FALSE,0,Day,-2.198225077669803
A-4168609,2019-04-10T13:42:00Z,41.244471,-111.995517,41.244479,-111.996017,738,R,Ogden,Weber,UT,84404-5406,41,10,23,0,Cloudy / Windy,0,FALSE,0,Day,-2.071473372030659
A-3885009,2019-09-16T19:44:00Z,36.274125,-121.818061,36.274125,-121.818061,46005,R,Big Sur,Monterey,CA,93920,65,10,0,0,Fair,0,FALSE,0,Night,-2.3025850929940455
A-3778819,2019-12-15T08:44:10Z,45.91711,-123.93834,45.91711,-123.93834,87862,L,Seaside,Clatsop,OR,97138,31,0.5,5,0,Fog,0,FALSE,0,Day,-2.3025850929940455
A-3807352,2019-10-17T19:50:00Z,44.441,-94.96688,44.4276,-94.94716,26941,R,Morgan,Redwood,MN,56266,53,10,12,0,Fair,0,FALSE,0,Night,0.3667242797917339
A-3784716,2019-12-19T17:53:00Z,37.14413,-121.984752,37.14413,-121.984752,22913,L,Los Gatos,Santa Clara,CA,95033-9012,54,10,7,0,Fair,0,FALSE,0,Night,-2.3025850929940455
A-3760265,2019-12-03T20:40:33Z,28.23715,-82.35559,28.23735,-82.35672,27885,R,Wesley Chapel,Pasco,FL,33544-4298,45,10,0,0,Fair,0,FALSE,0,Night,-1.7719568419318752
A-4220561,2019-07-16T00:44:12Z,41.382628,-81.126776,41.37671,-81.10828,14392,L,Burton,Geauga,OH,44021-9615,74,10,6,0,Fair,0,FALSE,0,Night,0.13278111123381858
A-3780676,2019-12-16T15:55:00Z,34.208288,-118.599096,34.208288,-118.599096,21442,L,Canoga Park,Los Angeles,CA,91304-6028,61,10,21,0,Partly Cloudy / Windy,0,FALSE,0,Day,-2.3025850929940455
A-4220212,2019-07-14T01:33:59Z,32.532512,-83.59349,32.516351,-83.598239,805,L,Kathleen,Houston,GA,31047-2346,77,10,3,0,Partly Cloudy,0,FALSE,0,Night,0.22314355131420976
A-3831489,2019-11-04T07:30:03Z,33.53138,-112.09961,33.53138,-112.09961,1900,R,Phoenix,Maricopa,AZ,85015,61,10,7,0,Fair,1,FALSE,1,Day,-2.3025850929940455
A-3814072,2019-10-22T11:20:49Z,44.12665,-124.12402,44.12328,-124.1262,91858,L,Florence,Lane,OR,97439-8233,59,3,6,0.01,Cloudy,0,FALSE,0,Day,-1.030019497202498
A-3883026,2019-09-15T04:07:13Z,42.259615,-122.800465,42.254321,-122.795201,5222,L,Phoenix,Jackson,OR,97535-6608,59,10,0,0,Fair,0,FALSE,0,Night,-0.5905905922348531
A-4233152,2019-08-10T14:49:02Z,34.558164,-91.976772,34.577115,-91.986535,2198,L,England,Lonoke,AR,72046-1265,78,10,5,0,Mostly Cloudy,0,FALSE,0,Day,0.4200252594394941
A-4169866,2019-04-12T09:06:30Z,29.637099,-82.349113,29.63794,-82.346649,1883,L,Gainesville,Alachua,FL,32611-2009,74,10,6,0,Mostly Cloudy,0,FALSE,0,Day,-1.3509272172825992
A-3787464,2019-12-20T02:49:39Z,45.96778,-123.92481,45.96778,-123.92481,85108,L,Seaside,Clatsop,OR,97138-6339,52,2,23,0.34,Heavy Rain / Windy,0,FALSE,0,Night,-2.3025850929940455
A-3816637,2019-10-24T17:47:25Z,41.32067,-74.09011,41.32214,-74.08098,1,R,Highland Falls,Orange,NY,10928,64,10,9,0,Fair,0,FALSE,0,Day,-0.5361434317502807
A-4210877,2019-08-28T05:43:00Z,33.917329,-117.244607,33.917329,-117.244607,23962,L,Moreno Valley,Riverside,CA,92553-8805,64,10,0,0,Fair,0,FALSE,0,Night,-2.3025850929940455
A-4178452,2019-04-02T08:22:34Z,38.828809,-77.366143,38.830571,-77.354543,12115,L,Fairfax,Fairfax County,VA,22030-6304,41,10,0,0,Mostly Cloudy,1,FALSE,0,Day,-0.3065251602532608
A-3837732,2019-11-08T18:17:27Z,45.62214,-119.43317,45.62214,-119.43317,71109,R,Echo,Umatilla,OR,97826-9002,39,4,0,0,Haze,0,FALSE,0,Night,-2.3025850929940455
A-4205327,2019-06-26T17:06:18Z,42.268229,-123.212533,42.267367,-123.211046,15965,L,Grants Pass,Jackson,OR,97527-8602,52,10,8,0,Cloudy,0,FALSE,0,Day,-1.6245515502441485
A-3882476,2019-09-13T22:40:00Z,36.298507,-119.645858,36.298507,-119.645858,10371,R,Hanford,Kings,CA,93230-8856,71,10,5,0,Fair,0,FALSE,0,Night,-2.3025850929940455
A-3775668,2019-12-13T10:54:29Z,25.76571,-80.19915,25.7653,-80.19998,882,R,Miami,Miami-Dade,FL,33130,81,10,9,0,Cloudy,0,FALSE,0,Day,-1.8388510767619055
A-3830995,2019-11-03T16:33:00Z,33.84141,-117.25547,33.84141,-117.25547,19223,R,Perris,Riverside,CA,92570-9494,66,10,7,0,Partly Cloudy,0,FALSE,1,Day,-2.3025850929940455
A-4229281,2019-08-02T15:20:44Z,41.776354,-85.897854,41.777538,-85.895925,17044,L,Edwardsburg,Cass,MI,49112-9258,81,10,7,0,Fair,0,FALSE,0,Day,-1.4740332754278973
A-3806458,2019-10-16T04:02:00Z,34.037039,-118.291557,34.037039,-118.291557,2064,L,Los Angeles,Los Angeles,CA,90007-1255,63,10,0,0,Fair,0,FALSE,0,Night,-2.3025850929940455
A-3834547,2019-11-06T13:41:31Z,39.06174,-94.47553,39.06307,-94.48071,8956,L,Kansas City,Jackson,MO,64129-1610,65,10,3,0,Fair,0,FALSE,0,Day,-0.9339456671128757
A-3788253,2019-12-22T14:17:49Z,38.51262,-78.06457,38.5114,-78.06089,9576,L,Culpeper,Culpeper,VA,22701-5664,48,10,3,0,Fair,0,FALSE,0,Day,-1.152013065395225
A-3863308,2019-09-27T09:16:30Z,44.560513,-123.121053,44.560442,-123.120865,31599,R,Tangent,Linn,OR,97389-9725,55,10,7,0,Cloudy,0,FALSE,0,Day,-2.2072749131897207
A-4197773,2019-06-10T12:47:16Z,43.91688,-85.148339000000007,43.90203,-85.14764,7121,L,Evart,Osceola,MI,49631-8262,55,10,10,0,Cloudy,0,FALSE,0,Day,0.11955923505763925
A-3870254,2019-09-04T11:56:00Z,38.543866,-109.518826,38.54603,-109.52099,1949,R,Moab,Grand,UT,84532-3235,90,10,3,0,Partly Cloudy,0,FALSE,0,Day,-1.2378743560016172
A-4222387,2019-07-18T16:40:44Z,45.05892,-122.944577,45.063517,-122.941032,9799,L,Salem,Marion,OR,97305-9721,76,10,6,0,Mostly Cloudy,0,FALSE,0,Day,-0.7721903879003983
A-3810839,2019-10-19T06:03:00Z,36.975586,-121.718535,36.975586,-121.718535,282,R,Watsonville,Santa Cruz,CA,95076-8608,48,10,5,0,Fair,0,FALSE,0,Night,-2.3025850929940455
A-3841234,2019-11-11T03:04:00Z,39.521808,-122.032745,39.521808,-122.032745,7380,L,Willows,Glenn,CA,95988-9617,54,10,0,0,Fair,0,FALSE,0,Night,-2.3025850929940455
A-4199232,2019-06-12T08:04:59Z,43.90398,-117.428765,43.898784,-117.437669,2680,L,Harper,Malheur,OR,97906,65,10,0,0,Fair,0,FALSE,0,Day,-0.4004775665971254
A-3834006,2019-11-05T16:46:50Z,33.62039,-117.09937,33.62033,-117.09942,34269,R,Winchester,Riverside,CA,92596,75,10,5,0,Fair,0,FALSE,1,Day,-2.2537949288246137
A-3766044,2019-12-06T11:21:00Z,33.900538,-118.019283,33.900538,-118.019283,14301,R,La Mirada,Los Angeles,CA,90638,70,10,5,0,Cloudy,0,FALSE,1,Day,-2.3025850929940455
A-4195611,2019-06-06T00:33:06Z,41.565209,-72.350525,41.56855,-72.34134,231,R,Colchester,New London,CT,06415-1633,69,8,10,0,Cloudy,0,FALSE,0,Night,-0.4652151125139384
A-4219515,2019-07-12T15:24:19Z,26.00777,-80.359327,26.00775,-80.36179,15911,L,Pembroke Pines,Broward,FL,33027-1201,87,10,10,0,Fair,0,FALSE,0,Day,-1.374365790254617
A-3810963,2019-10-19T13:12:00Z,33.323533,-117.235027,33.323533,-117.235027,3802,L,Fallbrook,San Diego,CA,92028-9455,76,10,9,0,Fair,0,FALSE,0,Day,-2.3025850929940455
A-3755051,2019-12-27T16:51:00Z,33.962983,-118.232195,33.962983,-118.232195,8300,L,Los Angeles,Los Angeles,CA,90001,60,10,0,0,Partly Cloudy,0,FALSE,0,Night,-2.3025850929940455
A-4225952,2019-07-26T17:24:31Z,39.20533,-76.61236,39.20472,-76.61222,100,L,Glen Burnie,Anne Arundel,MD,21060-6304,88,10,7,0,Fair,0,FALSE,0,Day,-1.9449106487222296
A-3860465,2019-09-25T14:09:46Z,38.89358,-76.98832,38.89357,-76.990213,1298,L,Washington,District of Columbia,DC,20002-6332,82,10,13,0,Fair,0,FALSE,0,Day,-1.5994875815809322
A-3784424,2019-12-18T22:33:00Z,38.49617,-121.434416,38.49617,-121.434416,5999,L,Sacramento,Sacramento,CA,95823-2331,46,4,5,0.01,Light Rain,1,FALSE,0,Night,-2.3025850929940455
A-3831502,2019-11-04T20:33:00Z,35.12215,-114.58425,35.12272,-114.58251,1722,R,Bullhead City,Mohave,AZ,86442,72,10,0,0,Partly Cloudy,0,FALSE,0,Night,-1.579879110192556
A-3820239,2019-10-25T22:21:00Z,33.97467,-118.278287,33.97467,-118.278287,7200,L,Los Angeles,Los Angeles,CA,90003-2030,72,10,0,0,Fair,1,FALSE,1,Night,-2.3025850929940455
A-4174017,2019-04-20T09:16:43Z,44.348188,-118.946229,44.340629,-118.948675,25757,R,Canyon City,Grant,OR,97820,47,10,9,0,Cloudy,0,FALSE,0,Day,-0.4525567156420149
A-3819490,2019-10-25T19:01:00Z,35.557983,-119.349651,35.557983,-119.349651,28795,L,Wasco,Kern,CA,93280-2700,77,10,6,0,Fair,0,FALSE,0,Night,-2.3025850929940455
A-4232658,2019-08-08T12:23:29Z,43.1581,-117.03872,43.147151,-117.042957,2457,L,Jordan Valley,Malheur,OR,97910-9713,82,10,15,0,Fair,0,FALSE,0,Day,-0.1210383283770561
A-3907211,2019-02-10T00:56:31Z,42.436511,-123.297367,42.43646,-123.29781,1162,L,Grants Pass,Josephine,OR,97526,21,2,10.4,0.01,Light Snow,0,FALSE,0,Night,-2.0955709236097197
A-4239231,2019-08-23T06:37:16Z,46.05016,-123.914112,46.049755,-123.914069,88870,L,Seaside,Clatsop,OR,97138-4816,52,10,6,0,Mostly Cloudy,0,FALSE,0,Day,-2.05572501506252
A-3825178,2019-10-30T16:14:30Z,44.6395,-123.16094,44.63948,-123.16171,5004,R,Albany,Benton,OR,97321-9687,54,10,10,0,Fair,1,FALSE,0,Day,-1.9805015938249322
A-4172457,2019-04-09T07:48:34Z,44.446337,-118.786148,44.43244,-118.83694,65247,L,John Day,Grant,OR,97845-7771,39,10,9,0,Cloudy,0,FALSE,0,Day,1.0235294825437538
A-4176650,2019-04-26T11:35:35Z,41.68004,-71.918033,41.680049,-71.917893,2,R,Plainfield,Windham,CT,06374-1051,52,10,6,0,Cloudy,0,FALSE,1,Day,-2.2349264445202306
A-4180053,2019-05-05T09:59:30Z,43.32132,-124.206062,43.31819,-124.206618,61573,R,Coos Bay,Coos,OR,97420-6390,52,8,6,0,Cloudy,0,FALSE,0,Day,-1.1457038962019601
A-3817912,2019-10-24T17:46:00Z,35.240724,-119.588603,35.240724,-119.588603,25071,L,Fellows,Kern,CA,93224-9789,84,10,9,0,Partly Cloudy,0,FALSE,0,Day,-2.3025850929940455
A-3864782,2019-09-28T19:10:00Z,38.100368,-120.589294,38.100368,-120.589294,1898,R,Angels Camp,Calaveras,CA,95222,55,10,0,0,Partly Cloudy,0,FALSE,0,Night,-2.3025850929940455
A-3774665,2019-12-12T14:40:00Z,39.005657,-123.688156,39.005657,-123.688156,16473,R,Manchester,Mendocino,CA,95459-8988,61,10,0,0,Mostly Cloudy,0,FALSE,0,Day,-2.3025850929940455
A-3821987,2019-10-28T14:30:00Z,41.1391,-95.9438,41.13973,-95.94114,2265,L,Bellevue,Sarpy,NE,68123,37,10,6,0,Cloudy,0,FALSE,0,Day,-1.40649706843741
A-4229655,2019-08-02T15:59:32Z,44.114979,-116.948841,44.111327,-116.953084,4732,R,Ontario,Malheur,OR,97914-8552,95,10,3,0,Partly Cloudy,0,FALSE,0,Day,-0.84629836005412
A-3826687,2019-10-31T07:35:51Z,45.58702,-117.82318,45.58556,-117.82094,72803,L,Elgin,Union,OR,97827,32,10,20,0,Mostly Cloudy,0,FALSE,0,Day,-1.3943265328171548
A-3860126,2019-09-24T13:51:00Z,33.916172,-118.18945,33.916172,-118.18945,11748,L,Lynwood,Los Angeles,CA,90262-4527,78,10,13,0,Fair,0,FALSE,0,Day,-2.3025850929940455
A-3801377,2019-10-12T18:38:00Z,40.75848,-111.87242,40.75848,-111.87204,640,R,Salt Lake City,Salt Lake,UT,84102,50,10,6,0,Partly Cloudy,1,FALSE,0,Day,-2.120263536200091
A-4203281,2019-06-21T18:05:56Z,39.621571,-104.95988,39.623069,-104.95985,9,L,Greenwood Village,Arapahoe,CO,80121-1415,53,8,13,0.01,Light Rain,0,FALSE,0,Day,-1.5896352851379205
A-3760085,2019-12-03T06:50:20Z,42.9877,-71.4161,42.9877,-71.4161,1141,R,Manchester,Hillsborough,NH,03104-5633,29,1,15,0,Light Snow,0,FALSE,0,Night,-2.3025850929940455
A-4214421,2019-08-30T18:29:00Z,33.980409,-118.43906,33.980409,-118.43906,4701,R,Marina Del Rey,Los Angeles,CA,90292-6902,74,10,10,0,Fair,0,FALSE,1,Day,-2.3025850929940455
A-4215280,2019-07-02T08:40:08Z,42.04495,-87.80558,42.04495,-87.80558,8953,R,Morton Grove,Cook,IL,60053-2075,83,10,9,0,Partly Cloudy,0,FALSE,0,Day,-2.3025850929940455
A-3826622,2019-10-31T15:38:00Z,40.6825,-112.00569,40.68205,-112.00569,4082,R,West Valley City,Salt Lake,UT,84120-4537,44,10,6,0,Partly Cloudy,0,FALSE,0,Day,-2.0325579557809856
A-4194220,2019-06-02T06:54:09Z,47.12887,-122.04929,47.12887,-122.04929,14205,R,Buckley,Pierce,WA,98321-9388,52,10,5,0,Cloudy,0,FALSE,0,Day,-2.3025850929940455
A-4183503,2019-05-12T08:43:03Z,44.05997,-121.290846,44.05997,-121.290466,1034,R,Bend,Deschutes,OR,97701-4821,63,10,7,0,Fair,0,FALSE,0,Day,-2.1286317858706076
A-3754381,2019-12-27T08:15:06Z,45.62356,-123.37594,45.62356,-123.37594,61890,R,Gales Creek,Washington,OR,97117,38,2,0,0,Fog,0,FALSE,0,Day,-2.3025850929940455
A-3830031,2019-11-02T02:04:00Z,34.263747,-119.00967,34.263747,-119.00967,4508,R,Somis,Ventura,CA,93066-9731,52,10,0,0,Smoke,0,FALSE,0,Night,-2.3025850929940455
A-4177926,2019-04-02T00:47:26Z,42.47626,-76.38719,42.477315,-76.384179,1565,R,Freeville,Tompkins,NY,13068-5615,24,10,5,0,Fair,0,FALSE,0,Night,-1.3093333199837622
A-3760539,2019-12-03T07:52:38Z,42.13795,-121.89091,42.13795,-121.89091,11700,R,Klamath Falls,Klamath,OR,97601-9257,30,0,0,0,Fog,0,FALSE,0,Day,-2.3025850929940455
A-4233341,2019-08-10T19:13:27Z,42.504371,-122.901871,42.491294,-122.934844,13400,R,White City,Jackson,OR,97503-9503,70,10,9,0,Mostly Cloudy,0,FALSE,0,Day,0.6966410698142012
A-3880051,2019-09-12T09:19:00Z,36.735383,-119.898759,36.735383,-119.898759,5999,L,Fresno,Fresno,CA,93706,71,10,8,0,Fair,0,FALSE,0,Day,-2.3025850929940455
A-3860893,2019-09-25T08:33:00Z,37.710562,-121.452882,37.710562,-121.452882,11996,L,Tracy,San Joaquin,CA,95376-8119,73,10,0,0,Fair,0,FALSE,0,Day,-2.3025850929940455
A-4208428,2019-08-26T11:30:38Z,45.464477,-122.6384,45.46429,-122.6384,8135,R,Portland,Multnomah,OR,97202,72,10,8,0,Fair,0,FALSE,0,Day,-2.1803674602697964
A-4229795,2019-08-02T18:12:38Z,44.24805,-121.046858,44.247785,-121.045232,15935,R,Powell Butte,Crook,OR,97753-1887,86,10,15,0,Partly Cloudy,0,FALSE,0,Day,-1.6982691261407161
A-3856361,2019-09-21T16:25:00Z,41.435556,-122.639133,41.435556,-122.639133,13336,R,Weed,Siskiyou,CA,96094,71,10,6,0,Fair,0,FALSE,0,Day,-2.3025850929940455
A-3811781,2019-10-20T03:12:00Z,34.071803,-118.122867,34.071803,-118.122867,1944,L,Alhambra,Los Angeles,CA,91801,59,10,0,0,Mostly Cloudy,0,FALSE,0,Night,-2.3025850929940455
A-3875645,2019-09-08T23:05:39Z,42.312038,-123.26879,42.31153,-123.265701,11457,L,Grants Pass,Josephine,OR,97527-8608,50,0.75,5,0,Fog,0,FALSE,0,Night,-1.3394107752210402
A-3769174,2019-12-09T09:35:00Z,45.55839,-94.12959,45.55839,-94.12959,774,L,Saint Cloud,Sherburne,MN,56304-1800,10,6,15,0,Haze,0,FALSE,0,Day,-2.3025850929940455
A-4180694,2019-05-07T09:20:04Z,39.204685,-77.537083,39.171354,-77.536656,14842,R,Leesburg,Loudoun,VA,20176-5720,65,10,3,0,Fair,0,FALSE,0,Day,0.8767179567543318
A-3841632,2019-11-11T14:40:00Z,36.776508,-121.71504,36.776508,-121.71504,14906,R,Salinas,Monterey,CA,93907,68,10,12,0,Partly Cloudy,0,FALSE,0,Day,-2.3025850929940455
A-3866074,2019-08-31T09:14:07Z,42.688347,-124.434127,42.687954,-124.433616,39799,L,Port Orford,Curry,OR,97465-9547,63,10,8,0,Cloudy,0,FALSE,0,Day,-1.9805015938249322
A-3836882,2019-11-07T12:54:00Z,34.040601,-118.161862,34.040601,-118.161862,4800,R,Los Angeles,Los Angeles,CA,90022-1307,73,3,5,0,Haze,0,FALSE,1,Day,-2.3025850929940455
A-3876509,2019-09-10T09:10:14Z,42.98434,-85.59077,42.982636,-85.59076,1199,L,Grand Rapids,Kent,MI,49525-5805,67,10,7,0,Thunder,1,FALSE,1,Day,-1.523260216193048
A-3947835,2018-12-15T03:37:33Z,35.22432,-80.890209,35.22435,-80.89106,2984,L,Charlotte,Mecklenburg,NC,28208-5626,43,2,6.9,0.04,Rain,0,FALSE,0,Night,-1.910543005218022
A-4210087,2019-08-28T17:29:53Z,40.84694,-73.93365,40.83891,-73.93333,271,R,New York,New York,NY,10033-6328,72,10,3,0,Cloudy,0,TRUE,1,Day,-0.4231200433468851
A-3798775,2019-10-10T07:56:00Z,39.50262,-121.538985,39.50262,-121.538985,2998,L,Oroville,Butte,CA,95966-6110,49,10,7,0,Fair,0,FALSE,1,Day,-2.3025850929940455
A-3764753,2019-12-05T16:16:00Z,34.179378,-118.466162,34.179378,-118.466162,6001,R,Van Nuys,Los Angeles,CA,91411-2502,64,10,8,0,Mostly Cloudy,0,FALSE,1,Day,-2.3025850929940455
A-3756816,2019-12-29T17:59:00Z,43.81733,-95.25092,43.81733,-95.25092,40050,L,Heron Lake,Jackson,MN,56137-3142,30,5,5,0,Light Snow,0,FALSE,0,Night,-2.3025850929940455
A-4213250,2019-08-30T21:20:00Z,40.749762,-111.909752,40.74949,-111.90948,652,R,Salt Lake City,Salt Lake,UT,84104-1028,82,10,9,0,Partly Cloudy,0,FALSE,0,Night,-2.0874737133771
A-4200506,2019-06-15T17:53:56Z,40.93096,-74.07045,40.934506,-74.07074,154,R,Paramus,Bergen,NJ,07652,81,10,14,0,Fair,0,FALSE,0,Day,-1.0642108619507773
A-4230258,2019-08-04T00:55:00Z,41.072031,-111.978102,41.07239,-111.97848,852,L,Layton,Davis,UT,84041-2228,71,10,12,0,Partly Cloudy,0,FALSE,0,Night,-2.0249533563957662
A-4174315,2019-04-21T18:55:58Z,42.169699,-123.645978,42.168586,-123.646109,206,R,Cave Junction,Josephine,OR,97523-9023,58,10,3,0,Fair,0,FALSE,0,Day,-1.731605546408308
A-3767754,2019-12-08T13:24:00Z,40.5349,-112.29847,40.5349,-112.29847,230,R,Tooele,Tooele,UT,84074-1657,40,10,3,0,Cloudy,0,FALSE,0,Day,-2.3025850929940455
A-4236826,2019-08-18T14:24:01Z,34.06982,-118.13442,34.07124,-118.13357,2050,L,Alhambra,Los Angeles,CA,91803,77,10,8,0,Fair,1,FALSE,1,Day,-1.5606477482646683
A-4198653,2019-06-11T02:08:15Z,47.620442,-122.343872,47.620442,-122.343872,269,L,Seattle,King,WA,98109-5008,63,10,0,0,Fair,0,FALSE,0,Night,-2.3025850929940455
A-3806638,2019-10-16T09:11:00Z,33.945372,-118.36828,33.945372,-118.36828,5122,L,Inglewood,Los Angeles,CA,90304-1224,70,10,0,0,Fair,0,FALSE,0,Day,-2.3025850929940455
A-4066882,2018-03-13T21:19:12Z,41.98507,-73.42153,41.996638,-73.407236,4,R,Salisbury,Litchfield,CT,06068-1823,28,3,8.1,0,Light Snow,0,FALSE,0,Night,0.16974277458709455
A-3785717,2019-12-20T07:27:00Z,44.87762,-95.80775,44.87762,-95.80775,4198,R,Clarkfield,Yellow Medicine,MN,56223-3521,17,5,0,0,Cloudy,0,FALSE,0,Night,-2.3025850929940455
A-3860124,2019-09-24T14:13:00Z,36.921947,-121.710471,36.921947,-121.710471,748,R,Watsonville,Santa Cruz,CA,95076-9409,94,10,8,0,Fair,0,FALSE,0,Day,-2.3025850929940455
A-3817021,2019-10-24T05:37:08Z,45.20034,-123.89378,45.20007,-123.89428,33579,R,Cloverdale,Tillamook,OR,97112,39,0.5,0,0,Fog,0,FALSE,0,Night,-2.0325579557809856
A-3790395,2019-10-03T13:04:00Z,34.426527,-117.450979,34.426527,-117.450979,9763,R,Phelan,San Bernardino,CA,92371-6204,74,10,5,0,Fair,1,FALSE,1,Day,-2.3025850929940455
A-3845678,2019-11-16T08:55:19Z,45.64615,-117.27591,45.64615,-117.27591,73648,L,Enterprise,Wallowa,OR,97828,36,10,0,0,Fair,0,FALSE,0,Day,-2.3025850929940455
A-4169073,2019-04-12T00:50:38Z,36.495026,-80.052994,36.491087,-80.060428,2248,R,Sandy Ridge,Stokes,NC,27046-7217,64,10,3,0,Fair,0,FALSE,0,Night,-0.5191938734365074
A-4230043,2019-08-03T08:23:38Z,45.465217,-122.63839,45.46501,-122.63838,2598,R,Portland,Multnomah,OR,97202-6840,67,10,0,0,Mostly Cloudy,0,FALSE,0,Day,-2.1715568305876416
A-4238173,2019-08-21T17:06:00Z,40.681353,-111.98147,40.68156,-111.98147,4169,R,West Valley City,Salt Lake,UT,84120,97,10,9,0,Mostly Cloudy,0,FALSE,0,Day,-2.1715568305876416
A-4219893,2019-07-13T03:47:58Z,40.090779,-74.200813,40.090818,-74.204096,387,L,Lakewood,Ocean,NJ,08701-3571,66,10,3,0,Mostly Cloudy,0,FALSE,0,Night,-1.2946271725940668
A-3866382,2019-08-31T17:15:00Z,38.297347,-120.719457,38.297347,-120.719457,8866,R,Mokelumne Hill,Calaveras,CA,95245-9606,93,10,10,0,Fair,0,FALSE,0,Day,-2.3025850929940455
A-3809863,2019-10-18T16:34:00Z,34.432867,-118.592116,34.432867,-118.592116,28150,L,Valencia,Los Angeles,CA,91355-1003,80,10,7,0,Fair,0,FALSE,1,Day,-2.3025850929940455
A-4089844,2018-01-04T15:25:01Z,40.36805,-79.81717,40.36805,-79.81717,3608,R,North Versailles,Allegheny,PA,15137-2324,12.9,2,13.8,0,Light Snow,0,FALSE,0,Day,-2.3025850929940455
A-4227321,2019-07-29T09:19:10Z,42.27082,-123.61915,42.248877,-123.629104,19001,R,Selma,Josephine,OR,97538,62,10,0,0,Fair,0,FALSE,0,Day,0.530039842689795
A-4214858,2019-07-01T15:09:21Z,43.24926,-117.02904,43.241104,-117.041937,4749,L,Jordan Valley,Malheur,OR,97910,88,10,0,0,Fair,0,FALSE,0,Day,-0.040821994520255166
A-3884135,2019-09-15T23:00:00Z,38.155185,-121.676428,38.155185,-121.676428,16601,R,Isleton,Sacramento,CA,95641-9792,65,10,22,0,Fair / Windy,0,FALSE,1,Night,-2.3025850929940455
A-3759438,2019-12-31T12:59:04Z,39.68114,-105.89175,39.68114,-105.89175,29916,L,Silver Plume,Clear Creek,CO,80476,29,10,15,0,Fair,0,FALSE,0,Day,-2.3025850929940455
A-4207965,2019-08-25T14:02:36Z,44.756079,-122.4077,44.756001,-122.408977,566,L,Gates,Marion,OR,97346-3600,77,10,9,0,Fair,0,FALSE,0,Day,-1.8140050781753747
A-4181075,2019-05-07T09:03:22Z,42.07715,-124.313499,42.07679,-124.313098,16290,R,Brookings,Curry,OR,97415,50,10,0,0,Cloudy,0,FALSE,0,Day,-2.0249533563957662
A-4190476,2019-05-28T15:19:32Z,42.32787,-88.19673,42.32787,-88.19673,28901,R,Lakemoor,Mchenry,IL,60051-7249,51,2,12,0,Fog,0,FALSE,0,Day,-2.3025850929940455
A-4237251,2019-08-19T18:57:18Z,47.076438,-122.425397,47.073777,-122.421833,501,L,Spanaway,Pierce,WA,98387-8446,74,10,7,0,Fair,0,FALSE,0,Day,-1.05268335677971
A-4232319,2019-08-09T15:30:38Z,33.76581,-84.39037,33.76531,-84.39034,100,L,Atlanta,Fulton,GA,30313-1942,92,10,10,0,Fair,0,FALSE,0,Day,-2.0024805005437076
A-3906307,2019-02-08T16:33:54Z,46.018576,-123.245454,46.014757,-123.247089,70497,L,Clatskanie,Columbia,OR,97016,33.8,2.5,8.1,0,Light Snow,0,FALSE,0,Day,-0.9808292530117262
A-3765189,2019-12-06T16:00:15Z,42.39215,-87.88378,42.39215,-87.88378,2201,R,Waukegan,Lake,IL,60087-4274,33,10,5,0,Fair,0,FALSE,1,Day,-2.3025850929940455
A-4225602,2019-07-25T05:31:00Z,41.252423,-111.96978,41.250758,-111.96981,641,R,Ogden,Weber,UT,84404-6324,68,10,3,0,Fair,0,FALSE,0,Night,-1.5371172508544741
A-3915735,2019-02-24T13:40:08Z,43.806838,-122.570669,43.806805,-122.570503,44957,R,Westfir,Lane,OR,97492,37.9,10,6.9,0.05,Light Rain,0,FALSE,0,Day,-2.2164073967529934
A-4170199,2019-04-12T15:55:04Z,42.404612,-121.827882,42.38604,-121.8144,24236,R,Chiloquin,Klamath,OR,97624,53,10,17,0,Partly Cloudy,0,FALSE,0,Day,0.4421184257561999
A-3916474,2019-02-25T07:54:42Z,45.083139,-123.644571,45.082893,-123.647544,51963,L,Grand Ronde,Yamhill,OR,97347-9508,32,1,11.5,0.01,Light Snow,0,FALSE,0,Day,-1.4024237430497744
A-3946253,2018-12-13T00:05:30Z,47.991983,-122.181216,47.991969,-122.181206,1921,L,Everett,Snohomish,WA,98201,44.1,10,15,0.01,Light Rain,0,FALSE,0,Night,-2.2926347621408776
A-3854489,2019-09-19T19:32:00Z,34.077277,-117.514725,34.077277,-117.514725,13498,L,Fontana,San Bernardino,CA,92335,69,10,10,0,Fair,0,FALSE,0,Night,-2.3025850929940455
A-3882668,2019-09-14T13:39:00Z,33.995285,-117.968269,33.995285,-117.968269,2138,R,Hacienda Heights,Los Angeles,CA,91745-4242,94,10,8,0,Partly Cloudy,0,FALSE,0,Day,-2.3025850929940455
A-3909083,2019-02-12T21:08:23Z,42.25705,-121.87215,42.256183,-121.871407,11165,L,Klamath Falls,Klamath,OR,97601-9100,32,10,13.8,0,Overcast,0,FALSE,0,Night,-1.7660917224794772
A-3918222,2019-02-26T15:04:51Z,44.234241,-121.201099,44.234232,-121.201108,4474,R,Redmond,Deschutes,OR,97756-8625,19.9,0.5,10.4,0,Snow,0,FALSE,0,Day,-2.2926347621408776
A-3782031,2019-12-17T15:58:00Z,33.832345,-117.362272,33.832345,-117.362272,16999,R,Perris,Riverside,CA,92570,57,10,16,0,Partly Cloudy,0,FALSE,1,Day,-2.3025850929940455
A-3928778,2019-01-18T17:35:46Z,46.16281,-123.896075,46.16279,-123.89611,111,L,Warrenton,Clatsop,OR,97146,46,8,10.4,0.04,Light Rain,0,FALSE,0,Night,-2.2827824656978657
A-3763354,2019-12-04T15:38:28Z,36.90383,-121.63998,36.90405,-121.64317,2002,R,Watsonville,Santa Cruz,CA,95076-9427,58,8,6,0.04,Light Rain,0,FALSE,0,Day,-1.2837377727947985
A-3851808,2019-09-17T04:41:26Z,44.137932,-124.122973,44.13708,-124.124202,92227,R,Florence,Lane,OR,97439-8234,59,10,10,0,Cloudy,0,FALSE,0,Night,-1.6873994539038122
A-3825782,2019-10-30T09:37:00Z,34.144615,-117.252388,34.144615,-117.252388,2901,R,San Bernardino,San Bernardino,CA,92404-4429,57,7,0,0,Fair,0,FALSE,0,Day,-2.3025850929940455
A-3873939,2019-09-07T21:22:36Z,39.953136,-75.062217,39.95205,-75.06389,4794,R,Pennsauken,Camden,NJ,08109-2117,68,10,3,0,Fair,0,FALSE,0,Night,-1.532476871297972
A-3809320,2019-10-18T19:31:00Z,39.509889,-121.490115,39.509889,-121.490115,4572,R,Oroville,Butte,CA,95966-5675,62,10,5,0,Fair,0,FALSE,0,Night,-2.3025850929940455
A-4214679,2019-07-01T19:40:52Z,33.82602,-84.4904,33.828486,-84.491998,5234,R,Smyrna,Cobb,GA,30080-7180,88,10,7,0,Fair,0,FALSE,0,Day,-1.2241755116434554
A-4189030,2019-05-24T11:10:28Z,38.38492,-75.42304,38.38492,-75.42208,34180,L,Parsonsburg,Wicomico,MD,21849,80,10,13,0,Fair,0,FALSE,0,Day,-1.8838747581358606
A-4217856,2019-07-09T16:37:08Z,28.55314,-81.35892,28.55314,-81.35892,684,L,Orlando,Orange,FL,32803,84,10,17,0,Thunder,1,FALSE,0,Day,-2.3025850929940455
A-3807691,2019-10-17T09:37:00Z,38.766714,-120.821259,38.766714,-120.821259,11356,R,Placerville,El Dorado,CA,95667-9601,61,10,5,0,Fair,0,FALSE,0,Day,-2.3025850929940455
A-3912729,2019-02-19T19:26:11Z,33.833869,-84.310343,33.838129,-84.312129,1943,R,Atlanta,DeKalb,GA,30329-2737,37,2,11.5,0.02,Light Rain,0,FALSE,0,Night,-0.8867319296326106
A-4076932,2018-02-05T00:21:02Z,40.862714,-73.902257,40.862752,-73.901946,27,R,Bronx,Bronx,NY,10468-5322,39.9,10,8.1,0,Mostly Cloudy,1,FALSE,1,Night,-2.1541650878757723
A-4217068,2019-07-07T21:43:51Z,38.113615,-102.954374,38.113625,-102.95536800000001,24290,R,Mc Clave,Bent,CO,81057-9721,74,10,14,0,Fair,0,FALSE,0,Night,-1.870802676568508
A-4227798,2019-07-30T12:40:00Z,41.130238,-112.06451,41.12617,-112.06452,1141,L,Clearfield,Davis,UT,84015-8212,89,10,7,0,Fair,0,FALSE,0,Day,-0.9649559038554361
A-4218994,2019-07-11T13:23:41Z,44.799157,-93.234123,44.801102,-93.232168,3213,L,Burnsville,Dakota,MN,55337,79,10,3,0,Fair,0,FALSE,0,Day,-1.3280254529959148
A-3834159,2019-11-05T20:00:00Z,34.018221,-118.157942,34.018221,-118.157942,5220,R,Los Angeles,Los Angeles,CA,90022,65,10,0,0,Fair,0,FALSE,1,Night,-2.3025850929940455
A-3865152,2019-09-28T17:14:00Z,33.939787,-118.034417,33.939787,-118.034417,10293,R,Whittier,Los Angeles,CA,90604-2437,71,10,10,0,Mostly Cloudy,0,FALSE,0,Day,-2.3025850929940455
A-4164469,2019-04-03T13:23:09Z,42.88777,-73.77293,42.888792,-73.77282,1834,R,Halfmoon,Saratoga,NY,12065-1401,55,10,18,0,Partly Cloudy,0,FALSE,1,Day,-1.7660917224794772
A-4183016,2019-05-12T00:42:42Z,38.582393,-82.002488,38.582815,-82.003452,19990,R,Fraziers Bottom,Putnam,WV,25082-6807,55,10,0,0,Cloudy,0,FALSE,0,Night,-1.8325814637483102
A-3771479,2019-12-10T21:32:00Z,38.69696,-122.59963,38.69696,-122.59963,24578,R,Middletown,Lake,CA,95461,51,2,3,0,Light Rain,0,FALSE,0,Night,-2.3025850929940455
A-4168037,2019-04-09T20:59:41Z,44.52571,-119.89368,44.464011,-119.513077,26595,L,Mitchell,Wheeler,OR,97750-9744,40,10,12,0,Fair,0,FALSE,0,Night,2.961968643401182
A-3843606,2019-11-13T13:17:00Z,44.90181,-92.99444,44.90181,-92.99444,2499,L,Saint Paul,Ramsey,MN,55119-5917,26,3,0,0.01,Light Snow,0,FALSE,0,Day,-2.3025850929940455
A-3932776,2019-01-25T16:11:48Z,45.460622,-123.802656,45.460147,-123.805952,5695,R,Tillamook,Tillamook,OR,97141,50,10,0,0,Partly Cloudy,0,FALSE,0,Day,-1.3356012468043725
A-3761032,2019-12-03T08:33:00Z,36.356469,-119.367843,36.356469,-119.367843,8771,R,Visalia,Tulare,CA,93291-9683,44,0,5,0,Fog,0,FALSE,0,Day,-2.3025850929940455
A-3844917,2019-11-14T10:42:03Z,43.414790000000004,-83.92168,43.41477,-83.92035,2300,R,Saginaw,Saginaw,MI,48601-2431,28,5,7,0,Cloudy,0,FALSE,1,Day,-1.7897614665653818
A-4188253,2019-05-22T19:41:00Z,40.71725,-111.81042,40.71755,-111.81143,2799,L,Salt Lake City,Salt Lake,UT,84109,51,7,6,0,Light Rain,0,FALSE,0,Day,-1.851509473633829
A-3999327,2018-09-16T00:19:45Z,45.08897,-123.97016,45.087588,-123.968032,50905,R,Neskowin,Tillamook,OR,97149,59,10,10,0,Cloudy,0,FALSE,0,Night,-1.422958345491482
A-3751801,2019-12-25T16:21:00Z,46.34039,-94.34833,46.34039,-94.34833,1298,L,Brainerd,Cass,MN,56401,35,4,8,0,Cloudy,0,FALSE,0,Day,-2.3025850929940455
A-4194594,2019-06-03T06:17:24Z,40.406643,-104.94255,40.40663,-104.941417,6114,R,Johnstown,Weld,CO,80534,49,10,0,0,Partly Cloudy,0,FALSE,0,Day,-1.8325814637483102
A-3846686,2019-11-21T16:21:58Z,42.52188,-82.98827,42.52294,-82.9883,13500,R,Warren,Macomb,MI,48088,47,3,15,0.02,Rain,1,FALSE,0,Day,-1.7544636844843582
A-3907980,2019-02-11T12:14:46Z,45.669811,-121.89075,45.669938,-121.890386,6,R,Cascade Locks,Hood River,OR,97014-3000,43,10,12,0.02,Light Rain,0,FALSE,0,Day,-2.120263536200091
A-4204028,2019-06-25T00:44:09Z,26.547461,-81.78832,26.54743,-81.791815,10329,L,Fort Myers,Lee,FL,33913,82,10,3,0,Fair,0,FALSE,0,Night,-1.152013065395225
A-3765442,2019-12-06T09:51:25Z,43.62747,-122.14424,43.62747,-122.14424,48769,R,Oakridge,Lane,OR,97463-9663,39,0.25,0,0,Fog,0,FALSE,0,Day,-2.3025850929940455
A-3812433,2019-10-21T19:08:00Z,45.02,-92.98477,45.01977,-92.98478,2597,L,Saint Paul,Ramsey,MN,55109,50,10,9,0,Mostly Cloudy,1,FALSE,1,Night,-2.1541650878757723
A-4180368,2019-05-06T16:59:05Z,41.8013,-87.66478,41.8013,-87.66478,5102,R,Chicago,Cook,IL,60609-4930,55,10,12,0,Mostly Cloudy,0,FALSE,1,Day,-2.3025850929940455
A-4177912,2019-04-01T15:09:11Z,43.06837,-77.62748,43.06837,-77.62749,2198,L,Rochester,Monroe,NY,14623-4256,37,10,10,0,Fair,0,FALSE,1,Day,-2.2926347621408776
A-3816418,2019-10-23T17:27:00Z,34.032062,-118.153565,34.032062,-118.153565,300,L,Los Angeles,Los Angeles,CA,90022-2025,81,10,0,0,Partly Cloudy,0,FALSE,1,Day,-2.3025850929940455
A-3801145,2019-10-11T19:28:00Z,33.974722,-118.238057,33.974722,-118.238057,1913,L,Los Angeles,Los Angeles,CA,90001-2731,74,10,0,0,Partly Cloudy,1,FALSE,0,Night,-2.3025850929940455
A-3822619,2019-10-28T05:40:00Z,34.053136,-118.002236,34.053136,-118.002236,12901,L,La Puente,Los Angeles,CA,91746-1806,58,10,7,0,Fair,0,FALSE,1,Night,-2.3025850929940455
A-4188746,2019-05-23T07:00:41Z,39.636582,-105.891793,39.68123,-105.88995,23783,L,Dillon,Summit,CO,80435,30,1,17,0,Fog,0,FALSE,0,Day,1.1587662114878567
A-3785602,2019-12-20T16:26:53Z,40.48941,-86.63862,40.50389,-86.63876,5998,L,Delphi,Carroll,IN,46923-9483,36,10,7,0,Fair,0,FALSE,0,Day,0.09531017980432493
A-4210369,2019-08-28T07:17:48Z,42.808132,-121.835037,42.78472,-121.83634,44766,R,Chiloquin,Klamath,OR,97624,54,10,0,0,Partly Cloudy,0,FALSE,0,Day,0.5417427264007123
A-4207254,2019-05-31T16:02:00Z,40.526319,-112.29864,40.524679,-112.29865,220,L,Tooele,Tooele,UT,84074-2744,74,10,5,0,Mostly Cloudy,0,FALSE,0,Day,-1.5464631132727118
A-3820644,2019-10-26T17:46:00Z,34.017802,-118.165779,34.017802,-118.165779,4766,R,Los Angeles,Los Angeles,CA,90022-3729,79,10,0,0,Partly Cloudy,0,FALSE,0,Day,-2.3025850929940455
A-3855557,2019-09-20T13:21:00Z,34.16465,-118.296408,34.16468,-118.29645,582,L,Glendale,Los Angeles,CA,91201-2869,77,10,7,0,Fair,0,FALSE,0,Day,-2.2730262907525014
A-3792887,2019-10-04T23:48:00Z,36.950574,-121.523079,36.950574,-121.523079,978,R,Gilroy,Santa Clara,CA,95020-8080,55,10,3,0,Fair,0,FALSE,0,Night,-2.3025850929940455
A-3778141,2019-12-13T23:20:00Z,34.168936,-118.612829,34.168936,-118.612829,22300,L,Woodland Hills,Los Angeles,CA,91364-1520,55,1,0,0,Fog,0,FALSE,0,Night,-2.3025850929940455
A-3792483,2019-10-05T10:44:00Z,37.16922,-113.36654,37.16912,-113.36693,3396,L,Hurricane,Washington,UT,84737,62,10,3,0,Fair,0,FALSE,1,Day,-2.0955709236097197
A-3872837,2019-09-06T16:42:43Z,33.088104,-112.036156,33.08387,-112.03839,22960,L,Laveen,Pinal,AZ,85339,106,10,13,0,Partly Cloudy,0,FALSE,0,Day,-0.867500567704723
A-3821080,2019-10-26T22:19:00Z,39.38452,-122.017328,39.38452,-122.017328,5298,R,Colusa,Colusa,CA,95932,57,10,5,0,Fair,0,FALSE,0,Night,-2.3025850929940455
A-3812276,2019-10-21T07:00:00Z,44.02732,-91.75593,44.02732,-91.75751,81019,L,Winona,Winona,MN,55987-9253,48,4,14,0.01,Rain,0,FALSE,0,Night,-1.725971728690052
A-3808302,2019-10-17T14:43:00Z,34.019469,-117.628326,34.019469,-117.628326,12900,R,Ontario,San Bernardino,CA,91761,78,10,10,0,Fair,0,FALSE,1,Day,-2.3025850929940455
A-3784696,2019-12-19T17:42:00Z,39.363217,-123.501198,39.363217,-123.501198,23817,R,Willits,Mendocino,CA,95490,53,8,3,0,Cloudy,0,FALSE,0,Night,-2.3025850929940455
A-3770261,2019-12-09T15:09:00Z,34.108329,-117.30088,34.108329,-117.30088,499,L,San Bernardino,San Bernardino,CA,92410-3225,68,7,12,0,Partly Cloudy,0,FALSE,1,Day,-2.3025850929940455
A-3772258,2019-12-11T16:23:20Z,33.44675,-82.49408,33.44238,-82.49233,1134,R,Thomson,McDuffie,GA,30824-8331,51,10,5,0,Fair,0,FALSE,0,Day,-0.8722738464573806
A-3762269,2019-12-04T16:53:00Z,39.50424,-121.522964,39.50424,-121.522964,1,L,Oroville,Butte,CA,95966-5563,61,5,0,0,Cloudy,0,FALSE,0,Night,-2.3025850929940455
A-3972411,2018-11-27T15:29:30Z,42.32646,-74.17456,42.305825,-74.19566,4198,L,Hensonville,Greene,NY,12439-5012,37,10,16.1,0,Light Rain,0,FALSE,0,Day,0.6349882663864131
A-3947360,2018-12-14T11:37:24Z,45.344597,-123.817364,45.330277,-123.8369,15208,L,Tillamook,Tillamook,OR,97141-9502,59,10,18,0,Mostly Cloudy,0,FALSE,0,Day,0.3859424416193005
A-3793707,2019-10-06T19:58:00Z,38.563058,-121.49324,38.563058,-121.49324,2400,R,Sacramento,Sacramento,CA,95818-2239,68,10,0,0,Partly Cloudy,1,FALSE,1,Night,-2.3025850929940455
A-4173828,2019-04-20T09:11:46Z,41.10766,-76.89854,41.104843,-76.895852,16888,R,Allenwood,Lycoming,PA,17810-9161,67,10,15,0,Partly Cloudy,1,FALSE,1,Day,-1.07880966137193
A-3815640,2019-10-23T06:57:00Z,38.496036,-121.436723,38.496036,-121.436723,5898,L,Sacramento,Sacramento,CA,95823-2301,51,9,0,0,Fair,1,FALSE,0,Night,-2.3025850929940455
A-3802475,2019-10-13T09:21:39Z,43.35896,-121.74232,43.34671,-121.74832,142571,R,Gilchrist,Klamath,OR,97737,46,10,3,0,Partly Cloudy,0,FALSE,0,Day,-0.0020020026706730793
A-3758673,2019-12-30T19:23:00Z,39.276536,-121.003524,39.276536,-121.003524,10003,R,Nevada City,Nevada,CA,95959-9115,48,10,7,0,Fair,0,FALSE,0,Night,-2.3025850929940455
A-3880690,2019-09-13T17:39:06Z,42.342838,-88.16923,42.343915,-88.16923,33257,R,Fox Lake,Lake,IL,60020,68,10,13,0,Fair,0,FALSE,0,Day,-1.7486999797676082
A-3795888,2019-10-08T12:28:00Z,45.55927,-123.91601,45.55924,-123.91507,100,R,Garibaldi,Tillamook,OR,97118-1105,52,4,7,0.02,Light Rain,0,FALSE,0,Day,-1.9241486572738005
A-3875777,2019-09-09T18:39:22Z,44.055392,-121.24307,44.05534,-121.24346,21609,R,Bend,Deschutes,OR,97701,55,10,0,0,Light Drizzle,0,FALSE,0,Day,-2.120263536200091
A-3752846,2019-12-26T04:28:00Z,37.958689,-122.366921,37.958689,-122.366921,1779,L,Richmond,Contra Costa,CA,94801-1522,47,10,0,0,Cloudy,0,FALSE,0,Night,-2.3025850929940455
A-3825673,2019-10-30T08:00:00Z,34.0886,-118.47545,34.0886,-118.47545,1297,R,Los Angeles,Los Angeles,CA,90049-1667,53,10,3,0,Partly Cloudy,0,FALSE,0,Day,-2.3025850929940455
A-3800145,2019-10-11T11:38:43Z,42.27567,-121.90282,42.27327,-121.88720000000001,14025,R,Klamath Falls,Klamath,OR,97601-9100,51,10,0,0,Fair,0,FALSE,0,Day,-0.08773891430800687
A-4164736,2019-04-03T16:30:51Z,35.354993,-89.776047,35.35823,-89.77278,8343,L,Millington,Shelby,TN,38053-5619,73,10,10,0,Fair,0,FALSE,0,Day,-0.941608539858445
A-3811681,2019-10-20T20:44:00Z,37.48538,-122.39852,37.48538,-122.39852,12003,L,Half Moon Bay,San Mateo,CA,94019-7101,59,9,16,0,Fair,0,FALSE,0,Night,-2.3025850929940455
A-3791189,2019-10-04T14:41:01Z,45.54548,-122.70321,45.54385,-122.70264,3307,R,Portland,Multnomah,OR,97210,60,10,3,0,Cloudy,0,FALSE,0,Day,-1.532476871297972
A-4164805,2019-04-02T03:50:41Z,42.34081,-122.913337,42.34076,-122.92909,1567,L,Medford,Jackson,OR,97501,51,6,0,0.08,Light Rain,0,FALSE,0,Night,-0.0998203352822109
A-3828777,2019-11-01T09:12:00Z,36.523995,-121.793684,36.523995,-121.793684,1,R,Carmel Valley,Monterey,CA,93924-9437,53,10,0,0,Fair,0,FALSE,0,Day,-2.3025850929940455
A-4171415,2019-04-16T05:01:11Z,38.91724,-76.97356,38.91721,-76.97257,2229,L,Washington,District of Columbia,DC,20002-1900,45,10,7,0,Fair,0,FALSE,0,Night,-1.8773173575897015
A-3866384,2019-08-31T17:17:00Z,38.4168,-121.859662,38.4168,-121.859662,7311,L,Dixon,Solano,CA,95620-9734,95,10,5,0,Fair,0,FALSE,0,Day,-2.3025850929940455
A-4207763,2019-06-01T14:04:55Z,44.60222,-123.247579,44.599672,-123.248479,2279,R,Corvallis,Benton,OR,97330,80,10,15,0,Fair,0,FALSE,0,Day,-1.2658482080440234
A-3842470,2019-11-12T11:27:00Z,38.212199,-121.558501,38.212199,-121.558501,14424,R,Walnut Grove,Sacramento,CA,95690-9749,70,6,5,0,Haze,0,FALSE,0,Day,-2.3025850929940455
A-3858450,2019-09-23T00:27:00Z,36.733176,-121.608118,36.733176,-121.608118,366,L,Salinas,Monterey,CA,93906-1402,60,10,7,0,Fair,0,FALSE,0,Night,-2.3025850929940455
A-4233100,2019-08-10T16:15:17Z,41.25033,-76.75912,41.242734,-76.777587,1,R,Muncy,Lycoming,PA,17756,81,10,13,0,Fair,0,FALSE,0,Day,0.1773090149704105
A-4185946,2019-05-17T17:50:18Z,42.68149,-73.79164,42.68149,-73.79164,909,R,Albany,Albany,NY,12206-1305,69,10,14,0,Light Rain,0,FALSE,1,Day,-2.3025850929940455
A-3810317,2019-10-19T03:37:57Z,44.11436,-122.45535,44.11292,-122.43464,48764,L,Vida,Lane,OR,97488-9738,54,10,16,0.04,Light Rain,0,FALSE,0,Night,0.1239859797809913
A-4168270,2019-04-10T05:47:41Z,38.903481,-76.927767,38.90374,-76.925059,5085,R,Washington,District of Columbia,DC,20019-5531,47,10,5,0,Fair,0,FALSE,0,Night,-1.3983669423541598
A-3774164,2019-12-12T17:40:00Z,46.35887,-94.82521,46.35887,-94.82521,1787,L,Staples,Todd,MN,56479,12,10,0,0,Cloudy,0,FALSE,0,Night,-2.3025850929940455
A-4231025,2019-08-06T04:01:18Z,41.092027,-74.687409,41.091523,-74.683464,127,R,Lafayette,Sussex,NJ,07848-4614,63,10,0,0,Cloudy,0,FALSE,0,Night,-1.1776554960085626
A-3804747,2019-10-15T16:57:12Z,45.46711,-123.74915,45.46694,-123.75825,11197,L,Tillamook,Tillamook,OR,97141-9776,59,10,6,0,Cloudy,0,FALSE,0,Day,-0.6143360001356555
A-3866013,2019-08-31T12:46:00Z,40.629514,-111.889773,40.629971,-111.88973,6585,R,Salt Lake City,Salt Lake,UT,84107-7218,90,10,5,0,Fair,0,FALSE,1,Day,-2.0249533563957662
A-3751788,2019-12-25T10:36:00Z,47.9152,-92.80908,47.9152,-92.80908,2558,R,Orr,St. Louis,MN,55771,28,10,0,0,Cloudy,0,FALSE,0,Day,-2.3025850929940455
A-3803111,2019-10-14T11:12:56Z,38.68988,-86.7307,38.68987,-86.73053,10390,L,Shoals,Martin,IN,47581-7271,57,10,3,0,Fair,0,FALSE,0,Day,-2.2164073967529934
A-3832226,2019-11-04T10:53:00Z,33.87815,-117.88049,33.87815,-117.88049,2833,L,Fullerton,Orange,CA,92831,76,7,3,0,Fair,0,FALSE,0,Day,-2.3025850929940455
A-4222913,2019-07-19T19:59:10Z,44.977904,-123.219147,44.974173,-123.221271,2840,R,Rickreall,Polk,OR,97371-9723,72,10,13,0,Fair,0,FALSE,0,Day,-0.9728610833625494
